"station_id","station_english_name","station_nepali_name","station_latitude","station_longitude"
"1002","Maitighar  ","माइतीघर ","27.6938263","85.3213987"
"1003","Hanumansthan","हनुमानस्थान","27.693499775963488","85.32754428684711"
"1004","Singhadurbar","सिंहदरबार","27.698462422640432","85.32155927270651"
"1005","Kamaladi Bus Stop","कमलादी","27.7079801","85.3177696"
"1006","Shankardev Bus Route Point","शंकरदेव","27.703054681034537","85.32247591763736"
"1007","Dillibazzar Bus Stop","डिल्लीबजार","27.705368","85.3266746"
"1008","Tilingatar Bus Route Point","तिलिंगाटार","27.7432615","85.3298986"
"1009","Basundhara Bus Stop","बसुन्धरा","27.7422265","85.3326666"
"1010","Bhatbhateni  Narayangopal Chowk","भाटभटेनी नारायणगोपाल चोक","27.73927182893425","85.33860135823488"
"1012","Narayangopal Chok Route Point","नारायणगोपाल चोक","27.74003594321974","85.3370963037014"
"1013","Chappal Karkhana Bus Route Point","चप्पल कारखाना चोक","27.734747865839978","85.34247178584337"
"1014","Boudha Bus Route Point","बौद्ध","27.7207074","85.3617525"
"1015","Jorpati Bouddha","जोरपाटी बौद्ध","27.7218091","85.3727818"
"1016","Narayantar Bouddha","नारायणटार बौद्ध","27.72159154731513","85.3798346221447"
"1019","Koteshwor Bus Stop B","कोटेश्वर","27.678413631154278","85.34901302307844"
"1021","Minbhawan Bus Route Point","मिनभवन","27.687756693617544","85.33845718950033"
"1022","New Baneshwor Minbhawan","नया बानेश्वर मिनभवन","27.688336210900587","85.33559560775757"
"1023","Buddhanagar Bus stop","बुद्धनगर","27.68961666005669","85.33000152558088"
"1024","Balkumari Bus Route Point","बालकुमारी","27.671385841328252","85.34020163118839"
"1025","Bhotebahal Bus Route Point","भोटेबहल","27.695821267052825","85.30832324177027"
"1026","Kalimati Bus Route Point","कालिमाटी","27.6983909","85.299426"
"1027","Teku Bus Route Point","टेकु","27.696277247225094","85.3069844841957"
"1028","Kuleshwor Bus Stop","कुलेश्वर","27.6918124","85.2987421"
"1029","Balkhu Bus Stop","बल्खु","27.684840356836112","85.29815465211867"
"1030","Soltimode Bus Route Point","सोल्टीमोड","27.696645354828682","85.29365424066783"
"1031","Jaulakhel Chok Bus Stand","जावलाखेल चोक","27.6728345","85.3136069"
"1033","Hariharbhawan Bus Stand","हरिहरभवन","27.6810413","85.3174478"
"1035","Krishna Galli ","कृष्ण गल्लि","27.6798703","85.3190196"
"1039","Patan Hospital Bus Route Point","पाटन अस्पताल","27.668300407052254","85.32169438898563"
"1040","Ekantakuna Bus Route Point","एकान्तकुना चक्रपथ","27.6666726","85.3083336"
"1041","Nakhhu Dobato Bus Route Point","नक्खु दोबाटो","27.6688676","85.3062415"
"1042","Sallaghari Tinkune Bus Route Point","सल्लाघारी तिनकुने","27.671701773478627","85.40843937546015"
"1043","Sallaghari Suryabinayak","सल्लाघारी सुर्यविनायक","27.66998165439303","85.41079502552749"
"1044","Chundevi Bus Route Point","चुनदेवी","27.66697754236578","85.41713777929544"
"1045","Surya Vinayak Bus Route Point","सुर्यविनायक","27.665731273375926","85.42441997677088"
"1046","Jagati Bus Route Point","जगाती","27.66644720423729","85.43757554143667"
"1047","Nalinchok Bus Route Point","नलिन्चोक","27.654075580073293","85.45699506998061"
"1048","Palase Bus Route Point","पलासे","27.643788732703086","85.46536222100258"
"1049","Nikosera Bus Route Point","निकोसेरा","27.679153825380244","85.4023839533329"
"1050","Thimi Bus Route Point","ठिमी","27.673330116051385","85.38593899458647"
"1051","Jamal","जमल","27.70872304841058","85.31467538326979"
"1053","Purano Buspark Bhrikutimandap","पुरानो बसपार्क भृकुटीमण्डप","27.701870567738805","85.31659685075283"
"1054","Khani Bibhag","खानी बिभाग","27.71841225870592","85.31741324812172"
"1055","Hotel Gangzhong Lazimpat","ज्ञानग्जोङ","27.72282619751261","85.32117772847414"
"1056","Panipokhari Lazimpat","पानि पोखरी लाजिम्पाट","27.728159666342798","85.32422102987766"
"1057","Ratnapark Bus Route Point","रत्नपार्क","27.7067251","85.3153718"
"1058","Lainchour Bus Route Point","लैनचौर","27.7172063","85.3150405"
"1059","Gaushala Pinglasthan","गौशाला पिंग्लास्थान","27.7074909","85.3439856"
"1060","Mitrapark Bus Route Point","मित्रपार्क","27.713268274978397","85.34546781331301"
"1061","Chabahil Gopikrishna","चाबहिल गोपीकृष्ण","27.718373377735634","85.34689575433731"
"1062","Pinglasthan Bus Route Point","पिंग्लास्थान","27.705773729366715","85.34729037433863"
"1064","Maitidevi Ratopul","मैतीदेवी रातोपुल","27.7081986","85.3334016"
"1065","Maijubahal Bus Route Point","मैजुबहाल चोक","27.7176468","85.3475945"
"1067","Kalanki Bus Route Point","कलंकी ","27.6933988","85.2816591"
"1068","Kalanki Malpot Bus Route Point","कलंकी मालपोत","27.6916984","85.2825147"
"1069","Thapathali Campus","थापाथली क्याम्पस","27.6939878","85.319277"
"1072","Gwarko Route Point","ग्वार्खो","27.666631308470492","85.3321261703968"
"1073","Saatdobato Bus Route Point","सातदोबाटो","27.65876770286948","85.3247058391571"
"1074","Mahalaxmisthan Bus Route Point","महालक्ष्मीस्थान थसिखेल","27.6613821","85.3181854"
"1075","Samakhushi Bus Route Point","सामाखुसी","27.735126823580458","85.31819745898247"
"1077","Balaju Chowk","बालाजु चोक","27.72720553146613","85.30480753630398"
"1078","Naya Bus Park Route Point","नया बसपार्क","27.735157982928836","85.30817840248346"
"1079","Siddhartha Banasthali Chok","सिद्धार्थ बनस्थली चोक","27.724865417257252","85.29783044010401"
"1080","Dhungedhara Banasthali","ढुंगेधारा बनस्थली","27.72339543777434","85.29454976320268"
"1081","Machha Pokhari Bus Route Point","माछा पोखरी","27.735268079221733","85.30581302940847"
"1082","BalMandir Bus Route Point","बालमन्दिर","27.7149565","85.3296626"
"1083","Naag Pokhari Bus Stop","नाग पोखरी","27.71335583544097","85.32360948622227"
"1084","Chhate Ganesh Bus Route Point","छाते गणेश बस रुट पोइन्ट","27.7170769417201","85.33037200570105"
"1085","Bhatbhateni Tangal","भाटभटेनी टंगाल","27.71917859683293","85.33106032758951"
"1086","Naxal Bus Stop","नक्साल टंगाल","27.7126438","85.3286809"
"1088","Saraswati Campus Route Point","सरस्वति क्याम्पस","27.718234177812313","85.31077578663826"
"1090","Balaju Pul Bus Route Point","बालाजु पूल","27.7253563","85.3054154"
"1091","Ascal Bus Route Point","अस्कल","27.7177964","85.3132099"
"1092","SukeDhara Bus Route Point","सुकेधारा ","27.7280748","85.345788"
"1093","Dhumbarahi Bus Stop","धुम्बाराही","27.7317357","85.3443718"
"1094","Gopikrishna Pul","गोपीकृष्ण पूल","27.721795740428096","85.34562673419713"
"1095","Airport Goldengate Bus Route Point","एयरपोर्ट गोल्डेन गेट","27.7008904","85.3534698"
"1096","Sinamangal Bus Route Point","सिनामंगल ","27.6952988","85.3550202"
"1097","Tilganga Bus Route Point","तिलगंगा","27.7061184","85.3496182"
"1098","3 No Cargo Gate","३ नं कार्गो गेट","27.6914134","85.3528905"
"1099","Thulo Bharyang Bus Route Point","ठुलो भर्यांग","27.7196912","85.286876"
"1100","Halchok Bus Route Point","हलचोक","27.7173215","85.2837163"
"1101","Sitapaila Bus Route Point","सिता पाइला","27.7076856","85.2824771"
"1102","Sano Bharyang Bus Route Point","सानो भर्यांग","27.7207715","85.2891934"
"1103","Bafal Bus Route Point","बाफल","27.7032212","85.2820051"
"1104","Kaushaltar Bus Route Point","कौसलटार","27.674521071155723","85.36420773714781"
"1105","Lokanthali Bus Route Point","लोकन्थली","27.6748084899393","85.3597344830632"
"1106","Gatthaghar Bus Route Point","गट्ठाघर","27.673964343571797","85.37325214594603"
"1107","Chardobato Bhaktapur","चारदोबाटो भक्तपुर","27.673525194852107","85.37984400987624"
"1108","Shrijananagar Bus Route Point","श्रीजना नगर","27.673004983942814","85.40393527597189"
"1109","Tribhuban Park Bus Route Point","त्रिभुवन पार्क","27.6903684","85.2216768"
"1110","Satangul Bus Route Point","सतुंगल","27.6868936","85.2512509"
"1111","Gurjudhara Bus Route Point","गुर्जुधारा","27.68777361604083","85.24216018617155"
"1112","Thankot Check Post","थानकोट चेक पोस्ट","27.6889908","85.2271217"
"1113","Nagdhunga Bus Route Point","नागढुंगा","27.6994928","85.2088505"
"1114","Sanepa Balakhu","सानेपा बल्खु","27.684324653222582","85.30166834592819"
"1115","Dhobighat Bus Route Point","धोविघाट","27.6747628","85.302015"
"1116","Nayabato Bus Route Point","नयाबाटो","27.6783501","85.302068"
"1117","Kirtipur Road","किर्तिपुर रोड","27.6761363","85.2937907"
"1118","TU Gate","टि यू गेट","27.67888838927917","85.29707238078117"
"1119","Panga Dobato Bus Route Point","पाँगा दोबाटो","27.674749996715082","85.28037797659636"
"1120","Kirtipur Nagarpalika Bus Route Point","किर्तिपुर नगरपालिका","27.682223811262475","85.2725388854742"
"1121","Chobhar Jala Binayak Bus Route Point","चोभार जलविनायक","27.658884112470037","85.29143270105124"
"1122","Chapali Bus Route Point","चपली","27.7676526","85.3557497"
"1123","DeubaChok Bus Stop","देउवा चोक","27.7748294","85.361082"
"1124","Golfutar Bus Route Point","गोल्फुटार","27.751038","85.3457665"
"1125","Hattigauda Budanilkantha","हात्तिगौडा बुढानिलकण्ठ","27.7561271","85.3489637"
"1127","Tyanglaphat Bus Route Point","त्यन्गलाफाट","27.6789748","85.2787891"
"1128","Satikhel Bus Route Point","सतीखेल","27.619975025813346","85.2645831182599"
"1129","Khahare Taudaha","खहरे टौदह","27.646682108410193","85.27740642428398"
"1130","Chalnakhel Bus Route Point","चाल्नाखेल","27.6378868","85.2795482"
"1131","Hattiban Bus Route Point","हात्तिबन","27.6479945","85.3356922"
"1132","Farping Bazaar Bus Route Point","फर्पिंग बजार","27.612998738578927","85.26469342410564"
"1134","Nakhhu Pul Bus Route Point","नक्खु पूल","27.6638623","85.3063139"
"1135","Mangal Bazaar Bus Route Point","मंगलबजार","27.672597","85.3249311"
"1136","Gaabahal Bus Route Point","गाबहाल","27.67428","85.320995"
"1138","Byasi Bus Route Point","ब्यासी","27.6754047","85.4299289"
"1139","Saraswatinagar Bus Route Point","सरस्वतीनगर","27.6848962","85.3569031"
"1140","Pepsicola Bus Route Point","पेप्सीकोला","27.68913601095144","85.36030814051628"
"1141","Sai Ram Chowk Bus Route Point","साइराम चोक","27.6898934","85.3630722"
"1142","Purano Bipul Chowk Bus Route Point","पुरानो बिपुल चोक","27.7163195","85.3670633"
"1143","Khahare Kadaghari","खहरे काँडाघारी","27.6966002","85.3662479"
"1144","Kandhaghari Micro Bus Route Point","काडाघारी माइक्रो पार्क","27.695003110354023","85.37089984863997"
"1145","Kaandaaghari Chowk Bus Route Point","काँडाघारी","27.6977592","85.3714299"
"1146","Birendra Chowk Bus Route Point","बिरेन्द्र चोक","27.6987756","85.3737688"
"1149","Mulpani Peepalbot Bus Route Point","मुलपानी पिपलबोट","27.70648405473841","85.39431251585484"
"1150","Baba Chowk Mulpani","बाबा चोक मुलपानी","27.7128242","85.3935742"
"1151","Milan Chowk Mulpani","मिलन चोक मुलपानी","27.7156736","85.3982198"
"1152","Chautaaro Mulpani","चौतारो मुलपानी","27.7162435","85.3966749"
"1153","Tiwari Toll Bus Route Point","तिवारी टोल","27.719001110790092","85.39381094276905"
"1154","Thali Bus Route Point","थली","27.7272035","85.405333"
"1155","Danchhi Bus Route Point","डाछि","27.727022716489696","85.4147033393383"
"1157","Kapan Saataley Chowk Bus Route Point","कपन सात तले","27.7269755","85.3504443"
"1158","Narayan Chowk Bus Route Point","नारायण चोक","27.728407472946106","85.3517971560359"
"1159","Pancha Kumari Bus Route Point","पंच कुमारी","27.7291408","85.3534913"
"1160","Milan Chowk Kapan","मिलन चोक कपन","27.7298625","85.3550363"
"1161","Tenzing Chowk Bus Route Point","तेन्जिंग चोक","27.7287989","85.3591776"
"1162","Gairi Gaun Hallchowk","गैरीगाउँ हलचोक","27.722963","85.2771503"
"1163","Chabahil Bus Route Point","चाबहिल","27.71712146244321","85.34657891839744"
"1164","Shanti Goreto Bus Route Point","शान्ति गोरेटो","27.71785991018637","85.34794382750988"
"1165","Annapurna Chok Bus Route Point","अन्नपुर्ण चोक","27.7224953","85.2927741"
"1168","Gangahall Bus Route Point","गंगा हल","27.7323293","85.3053685"
"1169","Satsang Bus Route Point","सत्संग","27.7359901","85.3216186"
"1171","Basundhara Chauki Bus Route Point","बसुन्धरा चौकी","27.7380578","85.3250223"
"1172","Chardobato Bode","चारदोबाटो बोडे","27.689932836356363","85.39043739438057"
"1173","Jayabageshwori Bus Route Point","जयबागेश्वरी","27.710406048002646","85.34419711679219"
"1174","Bode Planning Bus Route Point","बोडे प्लान्निंग","27.691992858392037","85.39409793913364"
"1175","Siddhikali Chowk Bus Route Point","सिद्धिकाली ","27.682454205174547","85.38321688771248"
"1176","Bahakha Bazzar Bus Route Point","बाखाबजार","27.682977","85.386343"
"1177","Basipukhu Toll Bus Route Point","बसीपुखु टोल","27.6814189","85.3848839"
"1178","Nasanani Toll Bus Route Point","नसानानी","27.6810769","85.3845191"
"1179","Nasanani Toll Bus Route Point","नासानानी टोल","27.6810959","85.3847551"
"1180","Chapaa-Cho Toll Bus Route Point","छापा-चो टोल","27.6812812","85.3855544"
"1181","Lachhi Toll Bus Route Point","लाछी","27.6809296","85.3861177"
"1182","Gaarchaa Toll Bus Route Point","गारछा टोल","27.6818179","85.386225"
"1183","Pacho Toll Bus Route Point","पाको टोल","27.681913","85.3880033"
"1185","Panika Bus Route Point","प.नि.का","27.682597","85.3723311"
"1186","Radheradhe Chowk Purano Bato","राधेराधे पुरानो बाटो","27.6800128","85.3983378"
"1187","Hindunagar Chowk Bus Route Point","हिन्दुनगर चोक","27.6794427","85.4011488"
"1188","Dhungedhara Bhaktapur","ढुंगेधारा चोक भक्तपुर","27.67866748894492","85.40467087179422"
"1190","Loktantrik Chowk Bus Route Point Chapagaaun Dobato","लोकतान्त्रिक चोक चापागाउँ दोबाटो","27.650030392850155","85.32106071710587"
"1191","Amarawati Bus Route Point","अमरावती","27.67382568084693","85.34260924905539"
"1192","KhariBot Balkumari Chok","खरीबोट बालकुमारी चोक","27.67025631703383","85.338239595294"
"1194","B&B Bus Route Point","बि एंड बि","27.6643469","85.3301561"
"1195","New Baneshwor Bijulibazar","नया बानेश्वर बिजुलीबजार","27.6886013","85.3347051"
"1196","New Baneshwor Anamnagar","नया बानेश्वर अनामनगर","27.69033184063329","85.33589098602535"
"1197","Thecho Bus Route Point","ठेचो","27.612573","85.31991"
"1198","Bijuli Bazar Hanumanthan","बिजुली बजार हनुमानस्थान","27.692149013543013","85.33019933849573"
"1200","Tasinchok Bus Route Point","तासिन्चोक","27.6075248","85.3363359"
"1201","Swiming Pool Bus Route Point","स्विमिंग पूल ","27.6601207","85.3267068"
"1202","Jwagal Chowk Bus Route Point","ज्वागल चोक","27.6854662","85.3182149"
"1203","Engineering Campus Bus Route Point","इन्जीनियरिंग क्याम्पस","27.6822455","85.3195024"
"1204","Bhanjyang Jharuwarashi","भन्ज्यांग झरुवाराशी","27.61200081659778","85.33836767077446"
"1205","Pulchowk Bus Route Point","पुल्चोक","27.6767824","85.3161764"
"1207","Santaneshwar Mahadev Bus Route Point","संतानेश्वर महादेव ","27.6148736","85.3428698"
"1208","Badegaun Bus Route Point","बाडेगाउँ","27.6178207","85.3527188"
"1209","Medical Chowk Bus Route Point","मेडिकल चोक","27.7194917","85.3028512"
"1210","Taukhel Bus Route Point","टौखेल बसपार्क","27.611521014611977","85.35749249160288"
"1211","Gitangali Chowk Bus Route Point","गितांजलि चोक","27.7193588","85.304997"
"1212","Thaiba Bus Route Point","ठैब","27.6247221","85.3480625"
"1213","Phalphul Chowk Bus Route Point","फलफुल चोक","27.7192353","85.3068531"
"1214","Chapagaun Dobato Bus Route Point","चापागाउँ दोबाटो","27.6579493","85.3225493"
"1215","Taalchhikhel Bus Route Point","तल्छिखेल","27.659092","85.320999"
"1216","BID Gate Bus Route Point","बि.आई.डी गेट","27.7297106","85.303731"
"1217","Pipal Bot Bus Route Point","पिपलबोट","27.6626816","85.3404236"
"1219","Samarpan Chowk Bus Route Point","समर्पण चोक","27.7318663","85.2956951"
"1222","Sanagaun School Chok","सानागाउँ स्कुल चोक","27.6497575","85.358963"
"1223","Kantipur College Bus Route Point","कान्तिपुर कलेज","27.6472485","85.364778"
"1224","Kwo Lachhi Bus Route Point","को लाछी","27.644081875360136","85.37150200456381"
"1225","Lubhu Bus Route Point","लुभू बसपार्क","27.642889103575488","85.37334702908993"
"1226","Pani Tyanki Bus Route Point","पानि टंकी लुभू","27.640472","85.3821051"
"1227","Lamatar Bus Route Point","लामाटार बसपार्क","27.63276249379342","85.39091650396584"
"1228","Dhungin Buspark Bus Route Point","ढुंगीन","27.627973","85.3951943"
"1233","Chapagaun Bus Route Point","चापागाउँ बसपार्क","27.597558599361665","85.32372448593378"
"1235","Magargaun Bus Park Bus Route Point","मगरगाउँ भैंसीपाटि","27.649154","85.3002146"
"1236","Dhaulagiri Chowk Bus Route Point","धौलागिरि चोक","27.7379439","85.3628361"
"1239","Kharibot Kapan","खरीबोट कपन","27.7355034","85.3642631"
"1240","Motitar Bus Route Point","मोतिटार","27.6649741","85.3591079"
"1241","Thapa Chowk Tikathali","थापा चोक टिकाथली","27.6644918","85.3615084"
"1242","Simaltar Chowk Bus","सिमल्टार","27.7323506","85.3741336"
"1244","Aarubari Chowk Bus station","आरुबारी चोक","27.7312585","85.3757751"
"1245","Sundarijal Bus Route Point","सुन्दरीजल","27.7589944","85.4207611"
"1246","BP Chowk Bus Route Point","बि.पी. चोक","27.7505063","85.4143667"
"1247","Bhadrabas Chowk Bus Route Point","भद्रबास चोक","27.738789","85.4181647"
"1249","Bhimeshower Bus Route Point","भिमेश्वर","27.7419274","85.4345745"
"1250","Sanagaun Chowk Indrayini","सानागाउँ  चोक इन्द्रायणी","27.7369088","85.4458237"
"1252","Indrayani Bus Route Point","इन्द्र्यायिनी","27.730048917789833","85.4340098798275"
"1254","Bir Hospital Bus Route Point","बिर अस्पताल","27.7057099","85.3142238"
"1256","Ghattekulo Bus Route Point","घट्टेकुलो","27.69943313589956","85.32858934253456"
"1257","Seto Pool Bus station","सेतो पूल","27.702960581751523","85.33579844981432"
"1258","Maitidevi Chowk Dillibazar","मैतीदेवी डिल्लीबजार","27.70390127408938","85.33261768519877"
"1259","Dillibazar Pipal Bot","डिल्लीबजार पिपलबोट","27.7049785","85.3291368"
"1260","Charkhal Bus Route Point","चारखाल","27.7065553","85.327034"
"1261","Putalisadak Computer Bazar","पुतलीसडक कम्प्युटर बजार","27.7068972","85.3227425"
"1263","Tara Hal Chowk Bus Route Point","तारा हल चोक ","27.697120330547307","85.3505227714777"
"1264","Saraswotikhel Chowk Bus Route Point","सरस्वतिखेल चोक","27.69497401758634","85.39916597306728"
"1265","Mahankal Chowk Bus Route Point","महांकाल चोक","27.699661712383552","85.41732855141163"
"1266","High School Bus Route Point","हाई स्कुल","27.7044086","85.4180789"
"1267","NEC College Bus Route Point","एन.ई.सि कलेज","27.709001472357738","85.41608098894358"
"1268","Nyacho Pauwa Bus Route Point","न्या:च्व पौवा","27.716846324083434","85.43261211365461"
"1269","Ramailo Gaun Bus Route Point","रमाइलो गाउँ","27.7127103","85.4386568"
"1270","Indra Chowk Bus Route Point","इन्द्र चोक","27.7103547","85.4391503"
"1271","Ghumti Ghar Bus Route Point","घुम्ति घर","27.7055864","85.4396868"
"1272","Pikhel Bus Route Point","पिखेल","27.7022808","85.4399443"
"1273","Pakune Pati Centre Bus Route Point","पाकुने पाटि","27.6970562","85.4407167"
"1274","Bansbari Kharipati","बाँसबारी खरिपाटी","27.6887153","85.4574859"
"1275","Ghumaune Bus station","घुमाउने","27.6949188","85.4607475"
"1276","Subidhanagar Nagarkot","सुविधानगर नगरकोट","27.6955553","85.46314"
"1277","Krishna Mandir Kushaltar","कृष्ण मन्दिर कुशलटार","27.6966857","85.4655218"
"1278","Bhadrakali Nagarkot","भद्रकाली नगरकोट","27.6978352","85.4667234"
"1279","Kharipati Bus Route Point","खरीपाटि","27.7024138","85.4702961"
"1280","Muhan Pokhari Bus Route Point","मुहान पोखरी","27.7045131","85.4741371"
"1281","Mahakali Bus Route Point","महाकाली","27.675894","85.431726"
"1282","Redcross Chowk Bus Route Point","रेड्क्रस चोक","27.6695802","85.3658295"
"1283","Changu Narayan Bus Route Point","चाँगुनारायण बसपार्क","27.6763548","85.4327506"
"1284","Mahalaxmi Changunarayan","महालक्ष्मी चाँगुनारायण","27.6761458","85.4336196"
"1286","Dhansar Bus Route Point","धनसार","27.6537489","85.3775239"
"1287","Kamal Vinayak Bus Route Point","कमल विनायक","27.6764023","85.4371816"
"1288","Chardobato Biruwa","चारदोबाटो बिरुवा","27.6503087","85.3829741"
"1289","Tarkhagal Bus Route Point","तर्खागाल ","27.6476381","85.395999"
"1290","Nagarkot Kamalbinayak","नगरकोट कमलविनायक","27.6775615","85.4377556"
"1291","Kitta Chaur Bus Route Point","कित्ता चौर","27.6092646","85.3732216"
"1292","Godawari Bus Route Point","गोदावरी","27.594518","85.3780925"
"1293","Bungmati Bus Route Point","बुंगमति","27.6284946","85.303684"
"1294","Khari Bot Balkumari","खरीबोट बालकुमारी","27.6675088","85.3490496"
"1295","Bhagawati Mandir Balkumari","भगवती मन्दिर बालकुमारी","27.6673187","85.3532124"
"1296","Jhikucha Bus Route Point","झिकू:च","27.6659504","85.3551865"
"1297","Manamaiju Futung","मनमैजु फुटुंग","27.7518735","85.3122336"
"1300","Tikathali Thapa Chowk","टिकाथली थापा चोक","27.664354","85.3628469"
"1301","By Pass Bus Route Point","बाइपास","27.7365741","85.3018185"
"1303","Force Park Bus Route Point","फोर्स् पार्क","27.66123365933634","85.36967273801565"
"1304","Nepaltar Bus Route Point","नेपालटार","27.7411772","85.3033662"
"1305","Seshmati Pul Bus Route Point","सेसमति पूल","27.744041298114766","85.3003416582942"
"1306","Shantitol Bus Route Point","शान्ति टोल","27.748764","85.3015476"
"1307","Jarankhu Bus Route Point","जरंखु","27.75750079891393","85.3019342198968"
"1308","North Valley Bus Route Point","नर्थ भ्याली ","27.76189","85.3011614"
"1309","Dhansar Bus Route Point","धन्सार","27.6537679","85.3775239"
"1311","Baniyatar Bus Route Point","बानियाटार","27.7537202","85.3185475"
"1312","Tarkhagal Bus Route Point","तार्ख गाल ","27.6476476","85.395999"
"1313","Phutung Mahadev Mandir","फुटुंग महादेव मन्दिर","27.757893","85.309664"
"1315","BIharatar Bus Route Point","बिहारटार","27.7538484","85.2936351"
"1318","Dharmasthali By Pass Bus Route Point","धर्मस्थली बाइपास","27.767276156536365","85.29708445072174"
"1319","Pirkun Bus Route Point","पिर्कुन","27.765078416742057","85.29824484139682"
"1321","Kamal Pokhari Imadol","कमल पोखरी इमाडोल","27.65649056361317","85.34857012331484"
"1322","Dhitalchok Bus Route Point","धिताल चोक","27.7642682","85.2839094"
"1323","Kharibot Imadol","खरीबोट इमाडोल","27.6591466","85.3445864"
"1324","Krishna Mandir Imadol","कृष्ण मन्दिर इमाडोल ","27.661692159559834","85.34264646470547"
"1326","Dhunge Sangu Bus Route Point","ढुंगे साँघु","27.6611802","85.3502297"
"1328","Patan Industrial Bus Route Point","पाटन औध्योगिक क्षेत्र","27.6625106","85.3238797"
"1329","Lagankhel Bus Park","लगनखेल बसपार्क","27.6669196","85.3232574"
"1330","JRC Chowk Bus Park","जे.आर.सी चोक","27.6601919","85.3196633"
"1331","Milan Chowk Bus Route Point Nakhipot","मिलन चोक नाखिपोट","27.6528651","85.3170133"
"1332","Nakhipot Bus Route Point","नखिपोट बसपार्क","27.6515346","85.3176999"
"1334","Janani Marga Bus Route Point","जननी मार्ग","27.6489597489152","85.32040189951657"
"1335","Pragati Chowk Bus Route Point","प्रगति चोक","27.64666280365245","85.31982019543648"
"1336","Dholahiti Bus Route Point","ढोलाहिटी","27.6420498","85.3215194"
"1337","Lapsi Bot Bus Route Point","लप्सी बोट","27.65163114190121","85.28614070266485"
"1338","Naagdaha Bus Route Point","नागदह","27.65019314169008","85.28207246214151"
"1339","Taudaha Bus Route Point","टौदह","27.6490067","85.2789903"
"1340","Paani Tyanki Taudaha","पानी टंकी टौदह","27.6487406","85.278368"
"1341","Mahadevthan Chalnakhel","महादेवथान चाल्नाखेल","27.6403295","85.2783251"
"1342","Bansbari Chalnakhel","बाँसबारी चाल्नाखेल","27.62509072694413","85.28485056012867"
"1343","Thaasikhel Bus Stop","थसिखेल","27.6627695","85.3165546"
"1344","Bhanjyang Bus Route Point Farping","भन्ज्यांग फर्पिंग","27.6181439","85.2751064"
"1745","Pahiro Bus Route Point","पहिरो","27.621049815211673","85.27211274951696"
"1346","Kushunti Bus Route Point","कुसुन्ती","27.6645512","85.3142935"
"1347","Dallu Bus Route Point","डल्लु","27.622613261441277","85.26541862636805"
"1348","Yatayat Karyalaya Bus station","यातातात कार्यालय","27.6656487","85.3116354"
"1349","Shes Narayan Than Bus Route Point","सेसनारायण थान","27.6170601","85.2643347"
"1350","Bagdol Bus Route Point","बागडोल","27.6707941","85.3047207"
"1351","Chhyabasti Bus Route Point","छ्याबस्ति","27.7158066","85.4688692"
"1352","Telkot Bus Route Point","तेलकोट","27.7122923","85.4751134"
"1353","Sanepa Nayabato","सानेपा नयाबाटो","27.6810294","85.3022236"
"1354","Bastola Gaun Bus Route Point","बास्तोला गाउँ","27.708227","85.4811645"
"1355","Pipalbot Sallaghari","पिपलबस्ती सल्लाघारी","27.7125203","85.4904771"
"1356","Madannagar Bus Route Point","मदननगर","27.6859104","85.2927715"
"1357","Pauwa Bus Route Point","पौवा","27.713983","85.437777"
"1358","Rop Line Bus Route Point","रुप लाइन","27.6883662","85.2863932"
"1359","Changunarayan Bus Buspark","चाँगुनारायण बसपार्क","27.716501435536593","85.43056726455687"
"1360","Sanku Buspark Mulpani","साँखु बसपार्क मुलपानी","27.72770827107041","85.46195581555367"
"1361","Khasi Bazzar Balkhu","खसीबजार बल्खु","27.6888578","85.2845934"
"1362","Raju Niwash Bus Route Point","राजु निवास","27.7512469","85.4455662"
"1363","Kalanki Makalu Bus Route Point","कलंकी मकालु","27.6959543","85.281525"
"1364","Gagal Bus Route Point","गागल बसपार्क","27.75285683305027","85.44814076274635"
"1365","Syuchatar Bus Route Point","स्युचाटार ","27.698895533996165","85.28153903782369"
"1366","Milan Tol Bus Route Point","मिलन टोल","27.7106207","85.2828366"
"1367","Machchhegaun Bus Route Point","मक्ष्क्षेगाउँ","27.6704924","85.2500868"
"1368","Thado Bharyang Bus Route Point","ठाडो भर्यांग","27.7131234","85.2831906"
"1369","Bauthali Chowk Bus Route Point","बौथली चोक","27.67720282529375","85.23984778672458"
"1370","Radha Krishna Chowk Bus Route Point","राधाकृष्ण चोक","27.7301273","85.2874097"
"1371","Tufan Chok Bus Route Point","तुफान चोक","27.7321349","85.2891163"
"1372","Kharibot Balaju","खरीबोट बालाजु","27.7308288","85.2938809"
"1373","Balaju Police Route Point","बालाजु पुलिस रुट पोइन्ट","27.7325429","85.3028646"
"1374","Balaju Height Bus Route Point","बालाजु हाईट","27.7356138","85.2956267"
"1375","Basbari Golfutaar","बाँसबारी गोल्फुटार","27.7456798","85.342344"
"1376","Dhapasi Height Bus Route Point","धापासी हाईट","27.7498384","85.3380374"
"1377","Boshigaun Bus Route Point","बोशी गाउँ","27.6768299","85.2483916"
"1378","Dahachowk Bus Route Point","दहचोक","27.7046092","85.2307722"
"1379","Baluwatar Bus Route Point","बालुवाटार","27.7245063","85.3308964"
"1380","Gyanpunja Marga Bus Route Point","ज्ञानपुँज","27.7332623","85.3363466"
"1381","kalopani","कालो पानि","27.69810322686063","85.2431458979845"
"1701","partnercity micro buspark","पार्टनरसिटी माइक्रो पार्क","27.678985181489182","85.33551078289746"
"1601","international friendship children hospital","अन्तर्राष्ट्रिय बाल मैत्री अस्पताल","27.731172481585325","85.32651297748089"
"1602","National Police Academy talim kendra","तालिम केन्द्र","27.73291567411987","85.32879687845707"
"1603","Teaching Kanti Bus Route Point","टिचिंग","27.73445556002633","85.33062279224397"
"1604","manohar school","मनोहरा स्कुल","27.737861096674276","85.31959623098372"
"1606","crs bus station","सी.आर.एस","27.74181756984857","85.32183554023504"
"1607","green land bus station","ग्रीनल्याण्ड","27.74661600657205","85.32403964549303"
"1608","milan samaj bus station","मिलन समाज ","27.75130326179488","85.32564125955105"
"1609","tokha pool bus station","टोखा पूल","27.756114632039733","85.32730791717766"
"1802","saibaba chok","साइबाबा चोक","27.7627468297473","85.33049002289772"
"1501","Suryadarshan Height Bus Stop","सुर्यदर्शन हाइट ","27.757452734347666","85.32243467867374"
"1502","dhaneswor mandir bus station","धनेश्वर मन्दिर","27.753857325952417","85.31860247254372"
"1503","jalpa chok bus station","जाल्पा चोक","27.74737799228646","85.31746957451107"
"1504","baniyataar pool bus station","बानियाटार पूल","27.74473891154574","85.31646039336918"
"1505","mana maiju pool bus station","मनमैजु पूल","27.74203537496934","85.31487118452787"
"1506","Ganeshsthan Gongabu","गणेशथान गोंगबू","27.73912998499366","85.31386569142342"
"1507","town planning samakhusi","टाउन प्लान्निंग सामाखुसी","27.730227869692794","85.31477529555558"
"1508","Redhon pul samakhusi","रेडनपूल सामाखुसी","27.72812494369591","85.31456373631953"
"1511","Galkopakha Samakhusi","गल्कोपाका सामाखुसी","27.719473318001715","85.31257152557373"
"1710","Tinkune Kritipur","तिनकुने किर्तिपुर","27.67588363139096","85.28137978166342"
"1704","Nagau Dobato","न गाउँ दोबाटो","27.67485896630051","85.27783423662186"
"1605","Metro Police Beat Kritipur","मेट्रो पुलिस बिट किर्तिपुर","27.677289227039417","85.27575317770243"
"1706","Panga Bus Stop","पाँगा बसपार्क","27.670930351074965","85.2791589125991"
"1707","Bhanjang Khokana","भन्ज्यांग खोकना","27.657395723237997","85.29631599783899"
"1708","Bhaisepaty Charghare","भैंसेपाटि चारघरे","27.655692900330603","85.30584990978241"
"1709","Bhaiseparty Awash","भैंसेपाटि आवास","27.654358894971843","85.30555989593267"
"1610","Mahila Ghar Chowk","महिलाघर चोक","27.6458769486206","85.30482798814774"
"1611","Karyabinayak ","कार्यबिनायक","27.642266873092808","85.3046801313758"
"1612","Khokana Dobato","खोकना दोबाटो","27.640227595545806","85.30507173389195"
"1613","Ncell Nakhhu","एनसेल नक्खु","27.664765605573155","85.30631627887489"
"1614","Aarthik Dainik Chahana Publication","आर्थिक दैनिक चाहना प्रकाशन","27.685838801987842","85.3137144818902"
"1805","Swyambhu","स्वयम्भु","27.715834806217686","85.28354063630104"
"21001","Welness club","वेलनेस क्लब ","27.71797803761703","85.31997911632061"
"1345","Bhaktapur buspark bagbazar","भक्तपुर बसपार्क बागबजार","27.705570990436964","85.31695257872343"
"1401","Attarkhel Jorpati","अत्तरखेल जोरपाटी","27.733137","85.3815"
"1402","jadibuti","जडिबुटी","27.6752360536728","85.3527795150876"
"3333","Ram petrol","राम पेट्रोल","27.697161000247146","85.3250377625227"
"3334","Sipradi","सिप्रदी","27.686316793610573","85.25862760841845"
"3335","New Buspark Gongabu","नया बसपार्क गोंगबु","27.732381501638105","85.30814453959465"
"3336","Old Buspark","पुरानो बसपार्क","27.705060430994692","85.31505458056927"
"3337","Ct Center","सिटि सेन्टर","27.70981240031698","85.32662194222213"
"3338","Berger Office Butwal","टेस्ट","27.684872718121554","83.4635481610894"
"3339","Muna House","मुना हाउस","27.59014645284354","83.36735174059866"
"3341","Testings","रुट पोइन्ट","27.69457295221341","85.31999856233595"
"3342","Tripureshwar","त्रिपुरेश्वर टेकू","27.694003264668694","85.31306438148022"
"3344","B N Biz ","बि एन बिज","27.72107126865781","85.32350923866034"
"3345","Nepal Bangladesh Bank","नेपाल बंगलादेश बैंक","27.708033218853345","85.31734049320221"
"3347","Krishna Pauroti Bhandar","कृष्ण पाउरोटी भण्डार","27.710305721770617","85.32258119434117"
"3348","Kamalpokhari  Kathmandu","कमलपोखरी काठमान्डू","27.710049562954918","85.32547362148762"
"3350","Rato Pul","रातो पूल","27.708091397418162","85.33685993403196"
"3351","Gaushala Chowk","गौशाला चोक","27.707864322741962","85.34337066113949"
"3353","Hyatt Regency Hotel","हायात रिजेन्सी","27.719335009878698","85.35404182970524"
"3354","Baral Oil Store","बराल आयल स्टोर","27.721419110682074","85.3700841218233"
"3355","Lama Petrol Pump","लामा पेट्रोल पम्प","27.72175418953492","85.37657741457224"
"3356","Test","रुट पोइन्ट","27.695445735076934","85.32097991555929"
"3368","Thamel Pipalbot","ठमेल पिपलबोट","27.718183127902492","85.31208537518978"
"3369","Golkopakha","गल्कोपाका","27.71884618126574","85.31240724027157"
"3371","Kapurdhara","कपुरधारा","27.724112474458106","85.31373661011457"
"3373","Sarkaridhara","सरकारीधारा","27.72635466759687","85.31419929116964"
"3376","Tarkari Bazar Chok","तरकारी चोक ","27.733270897370762","85.31457882374525"
"3377","Gongabu Chok","गोंगबु","27.73496064023866","85.31450070440769"
"3380","Dhungadhara Greenland","ढुंगेधारा ग्रीनल्याण्ड","27.74536263529642","85.32332684844731"
"3381","Ganeshthan Greenland","गणेशथान ग्रीनल्याण्ड","27.74750113200085","85.32450266182421"
"3382","Hariyali Basti","हरियाली बस्ति","27.749088880039825","85.32484330236912"
"3384","Grandy Hospital","ग्रयाण्डी अस्पताल","27.752731919145027","85.32693710178138"
"3385","Housing Chowk","हाउसिंग चोक","27.755167862800217","85.32817896455526"
"3386","Nist College","निष्ट कलेज","27.718234177812313","85.31414832919836"
"3391","Trichandra Campus","त्रीचन्द्र क्याम्पस","27.708553559710996","85.31697370111944"
"3392","Ghantaghr","घन्टाघर","27.70753602832216","85.3166551887989"
"3394","Tourism Board","टूरिजम बोर्ड","27.70225171766751","85.31711619347334"
"3395","Biswobhasa Campus","विश्वभाषा क्याम्पस","27.702041847894847","85.31893372535706"
"3396","Balmiki Campus","बाल्मिकी क्याम्पस","27.701867005583665","85.32031640410423"
"3412","Kl Tower","के.एल. टावर","27.718731616380076","85.34970603883266"
"3413","Chuchhepati Chok","चुच्चेपाटि चोक","27.71909638343428","85.35037122666837"
"3414","Chuchhepati Oil Route Point","चुच्चेपाटी आयल रुट पोइन्ट","27.71942286226902","85.35171769559385"
"3416","Bouddha Tusal","बौद्ध टुसाल","27.720129240402333","85.35775300115345"
"5010","Rangasala","रंगशाला","27.695312443179553","85.31396962702276"
"5013","Arab Bank Teku","अरब बैंक टेकु","27.696223515285567","85.30713502317667"
"3419","Tripureshor","त्रिपुरेश्वर","27.6937417239507","85.31413324177265"
"3422","Baral Oil Store","बराल आयल स्टोर","27.69831221363997","85.30093442648649"
"5012","Udyog Bivag Tripureshwor","उद्योग विभाग त्रिपुरेश्वर","27.694281726174566","85.31218126416206"
"3421","Teku Hospital","टेकु अस्पताल","27.696223515285567","85.30713502317667"
"3423","Saidgate","सहिद गेट","27.699585124472122","85.31505525112152"
"3425","Jorpati Sano Bazar","जोरपाटी सानो बजार","27.72252643997579","85.37300404161215"
"3427","Besi Gaun","बेसी गाउँ","27.726000015365965","85.37672895938158"
"5016","Naya Basti Kuleshwor","नया बस्ति कुलेश्वोर","27.692098248299807","85.29860224574804"
"3428","Venus Public School","भेनस पब्लिक स्कुल","27.72935210061531","85.37885662168264"
"3429","Pipalbasti Attarkhel","पिपलबस्ती अत्तरखेल","27.73161050807281","85.37979606539011"
"3430","Nmc College","एन.एम.सी कलेज","27.732689244659817","85.38089912384747"
"3431","Attarkhel","अत्तरखेल","27.733765596493626","85.38176514208317"
"3432","Shivapuri Chok Attarkhel","शिवपुरी चोक अत्तरखेल","27.73639693075081","85.38387738168238"
"3433","Bagwatithan Makalbari","भगवतीथान माकलबारी","27.73761064082571","85.38473468273878"
"3434","Gokarna Mandir","गोकर्ण मन्दिर","27.73916707809218","85.38744505494833"
"3435","Hanuman Chok","हनुमान","27.740124372410474","85.387565754354"
"3436","Maiti Nepal","माइती नेपाल","27.74024455290697","85.39046186953783"
"3437","Kahribot Chautara Gokarna","खरिबोट चौतारा गोकर्ण","27.74028253585115","85.39181102067234"
"3439","Bhairabchour Chok","भैरबचौर चोक","27.740097072131043","85.39635971188545"
"3440","Uttarbhahini Chok","उत्तरबाहिनी चोक","27.740255532353146","85.39788957685232"
"3441","Namtel Buspark","नम्तेल बसपार्क","27.74140332348524","85.40208723396063"
"3442","Nayapati Bangala","नयापाटि बंगला","27.74367809820097","85.40686156600712"
"3443","Nayapati Sundarijal","नया पाटि सुन्दरीजल","27.746406518910998","85.41060257703067"
"3446","Dobato","दोबाटो","27.755702813651745","85.41897073388101"
"3450","Uma Maheshwor Chowk","उमा महेश्वर चोक","27.657156070484053","85.3174253180623"
"3451","MahalaxmisthanTikhedebal","महालक्ष्मीस्थान तिखेदेबल","27.66268250160106","85.31930822879075"
"3452","Lagankhel Tarakari Bazar","लगनखेल तरकारी बजार","27.667237959418443","85.32128032296896"
"3456","Manbhuwan","मानभवन","27.67207946560243","85.31592160463335"
"3457","Damkal Pulchowk","दमकल पुल्चोक","27.675627391789956","85.31561315059662"
"3460","Nabil Bank","नबिल बैंक","27.682521304341044","85.31819444149734"
"3462","Thapathali","थापाथली","27.690812781350395","85.31752154231071"
"5023","Maitighar","माइतीघर","27.69452931288707","85.32041497528553"
"3465","Bhadrakali Bhrikutimandap","भद्रकाली भृकुटीमण्डप","27.699330127898964","85.31681712716818"
"3466","Sundhara","सुन्धारा ","27.701144182529617","85.31358104199172"
"3464","Narayantar","नारायणटार","27.721592","85.379792"
"5024","Nepal Apanga Sang","नेपाल अपाङ्ग संघ","27.721663964683827","85.38088168948889"
"5025","Makalbarigate","माकलबारी गेट","27.721854208443794","85.38281925022604"
"3467","Dakshin Dhoka","दक्षिन्ढोका","27.722242114738677","85.38600470870735"
"3468","Narling Gate","नर्लिंग गेट","27.722289898050605","85.38998242467642"
"3469","Mulpani","मूलपानि तिवारी टोल","27.71892958205237","85.39357759058475"
"5026","Bishal Chowk","बिसाल चोक","27.654364537504314","85.31939808279276"
"3470","Hariyali Nagar","हरियाली नगर","27.72098786950924","85.39696991443635"
"3471","Sano Thali","सानो थली","27.724701592542193","85.40194742381573"
"3472","Thali Milanchok","थली मिलनचोक","27.72569076955015","85.4035684838891"
"3473","Thulo Thali","ठुलो थली","27.727058626598563","85.40545742958784"
"3475","Baghdhara Daanchhi","बागधारा डाँछी","27.72714231788072","85.41760683059692"
"3476","Nayapati Daanchi","नया पाटि डाँछी","27.726562116358583","85.42056128382683"
"3477","Dhungadhara Bharmakhel","ढुंगेधारा ब्र्ह्मखेल","27.726664801865663","85.42301014065741"
"3479","Barmakhel","ब्रह्मखेल","27.72831814392409","85.4253027588129"
"3482","Kusunthali","कुसुन्थली","27.72932479763704","85.43846905231477"
"3483","Khulaltar","खुलालटार","27.729229533930997","85.4433999583125"
"3484","Salambu Devi Mandir","सलम्बु देवी मन्दिर","27.728676943439375","85.44882003217936"
"3485","Salambu Tar","सलम्बु टार","27.726362977426078","85.45623566955328"
"3486","Sakhu Purano Buspark","साँखु पुरानो बसपार्क","27.72761923825159","85.46152599155903"
"3487","Salinadi Chok","सालीनदि चोक","27.729410861349717","85.46516943722963"
"3488","Sakhu New Buspark","साँखु नया बसपार्क","27.731731291489726","85.46520564705133"
"3494","Nayabazar Road","नयाबजार रोड","27.72048035018367","85.30875373631714"
"3495","Dhara Galli","धारा गल्लि","27.721984500000513","85.30775662511587"
"3496","Pulwari","पुलवारी","27.72525123536001","85.30553475022316"
"3499","Lambagar","लामबगर","27.747706166734467","85.30088279396297"
"3500","Gairigaun Jarankhu","गैरीगाउँ जरंखु","27.752043258201542","85.30313551425934"
"3501","Shiva Mandir Jarankhu","शिव मन्दिर जरंखु","27.752610565593884","85.30308354645969"
"3503","Dharmasthali","धर्मस्थली","27.761271724356714","85.30128747224808"
"3505","SanoBypass","सानो बाइपास","27.767114768946946","85.29725041240455"
"3506","Petrol Pump","पेट्रोल पम्प","27.77147719301208","85.29037423431872"
"3507","Chisapani","चिसापानी","27.772456748990546","85.28773561120035"
"3508","Kharkhana Chok Tinpiple","कारखाना चोक तिनपिप्ले","27.773966707466055","85.28382126241924"
"3510","Tinpaple Tirsuli Highway","तिनपिप्ले","27.776565922848913","85.27762971818447"
"3513","Shivapurinagarjuna National Park","शिवपुरी नागार्जुन राष्ट्रिय निकुन्ज","27.741305993165625","85.29848892241716"
"3514","Goldhunga Trishuli Highway","गोलढुंगा त्रिशुली राजमार्ग","27.741990864421492","85.29683634638785"
"3515","Mudkhu","मुड्खू","27.76004789387124","85.26993479579687"
"3516","Baikhu","बैखु","27.756873881021797","85.27377035468817"
"3519","7mile","७ माइल","27.76853283553342","85.26988886296748"
"3520","8 Mile","८ माइल","27.77016774250599","85.27165107429028"
"3518","Whoopee Land Bus Route Point","हुप्पी ल्याण्ड","27.660992827166183","85.28782781213522"
"3521","Whoopee Land Bus Route Point","हुप्पी ल्याण्ड","27.66094175048484","85.28867673128842"
"3522","Naya Chowk","नया चोक","27.772520529585808","85.35956148058176"
"3523","Rudreshwor Chowk","रुद्रेश्वर चोक","27.77139056922431","85.35864617675543"
"5034","Bijulibazar Naya Baneshwor","बिजुली बजार नया बानेश्वर","27.690152823269756","85.32902050763369"
"3529","Kupandol","कुपण्डोल","27.687809242186514","85.31633835285902"
"3524","Shantinagar Gate","शान्तिनगर गेट","27.68669532586446","85.34300688654184"
"3531","Chunikhel","चुनिखेल","27.754165898420833","85.3682105988264"
"3532","Chymasing","च्यामासिंह","27.673448291683076","85.43836914002894"
"3533","Tathali Nala","ताथली ","27.673636244120377","85.43986212462187"
"3534","Tourist Buspark","टुरिस्ट बसपार्क","27.674782954830032","85.42716119438411"
"3535","Gundu","गुण्डु","27.665623185521937","85.42308490723373"
"3536","Kathmandu Suryabinayak","काठमाडौं सुर्यविनायक","27.66560299327364","85.42389694601297"
"3537","Babrmahal","बबरमहल","27.692251137703465","85.32461497932673"
"3540","Baluwapati Chowk","बालुवापाटि चोक","27.750365648860885","85.31797718256713"
"5041","Suryadarshan Height Stop","सुर्यदर्शन हाइट ","27.756318167065505","85.31989965587854"
"3541","Siddhapokhari Nagarkot","सिद्धपोखरी नगरकोट","27.674926070132827","85.41781805455685"
"3542","Aaudhogik Chetra","औध्यौगिक क्षेत्र","27.67461281958925","85.42320292443037"
"3543","Lakila Chok","लाकिला चोक पिखेल","27.695215368577248","85.44057961553335"
"3544","Dhara Pikhel","धारा पिखेल","27.70767791337346","85.43935384601355"
"3546","Bhaktapur Cancer Hospital","भक्तपुर क्यान्सर अस्पताल","27.673118706059753","85.4224606230855"
"3547","Dudhpati","दूधपाटि","27.67213825718351","85.4223969206214"
"3548","Sainik Avashya Mahabidhyalaya","सैनिकआवासीय महाबिद्यालय","27.671418800458053","85.41774429380894"
"3549","Kumaripati ","कुमारीपाटी","27.670385185537608","85.32084748148917"
"3550","Kumari","रुट पोइन्ट","27.66934532521158","85.32196059823036"
"3551","Route Point","रुट पोइन्ट","27.669850113013506","85.3216977417469"
"3552","NAGARKOT","नगरकोट","27.718266232394626","85.5181098729372"
"3553","Gadgade","गडगडे","27.71028939648744","85.51308508962394"
"3554","Nagarkot View Tower","नगरकोट भियु टावर","27.6927424604539","85.52076391875744"
"3560","Radission Hotel","राडिसन होटेल","27.720733516551878","85.31949531286955"
"3561","Sangrila Hotel","सांग्रिला होटल","27.72582313398944","85.32287891954184"
"3564","O","रुट पोइन्ट","27.70482058596683","85.31637858599424"
"3565","O","रुट पोइन्ट","27.699341705171896","85.31754534691572"
"3570","Okharbot","ओखरबोट","27.67408281543928","85.44328395277262"
"3571","Panghakhani","पाँगाखानी","27.67353410255158","85.44768042862417"
"3572","Faidhoka","फैढोका","27.67339840851745","85.44855181127787"
"3573","Gothalachour","गोठाला चौर","27.673318536020304","85.45276924967767"
"5044","Bhate Dhukur","भाते ढुकुर","27.66103410423426","85.44647343456745"
"3577","Gumba","गुम्बा","27.66192200286011","85.49357000738382"
"3578","Tathali Nala","ताथली नाला","27.663673428569748","85.48739556223154"
"3579","Hatti Gauda Nala","हात्तिगौडा नाला","27.66571405059317","85.48692617565393"
"3580","Chap","छाप","27.665189942199113","85.48748575150967"
"3581","Nalabuspark","नाला बसपार्क","27.65471199815222","85.50604529678823"
"3582","Pulbazar","पूल बजार","27.655680427515254","85.50424318760633"
"3583","Bayangdhunga","ब्यांगढुंगा","27.657384438485668","85.49920331686735"
"5058","Janagal Bus Route Point","जनगल","27.63218386996541","85.50077911466362"
"5055","Route Point","रुट पोइन्ट","27.63218386996541","85.50077911466362"
"3587","Route Point","रुट पोइन्ट","27.72963759439162","85.32478362321854"
"5059","Route Point","रुट पोइन्ट","27.63090571829614","85.52001927047966"
"3589","Route Point","रुट पोइन्ट","27.728440118085388","85.32480340451002"
"3590","Route Point","रुट पोइन्ट","27.728327937474937","85.32472997903824"
"3584","Atmagayan Saanga","आत्मज्ञान साँगा","27.63218386996541","85.50077911466362"
"3591","Route Point","रुट पोइन्ट","27.728087550063805","85.32404467463492"
"3588","Tindobato Bus station","तिन दोबाटो","27.63090571829614","85.52001927047966"
"3592","Route Point","रुट पोइन्ट","27.727970027136536","85.32391525804995"
"3593","Naya Buspark Bhaktapur","नया बसपार्क भक्तपुर","27.630570063628653","85.52204232662915"
"3594","Chardobato Banepa","चारदोबाटो बनेपा","27.629989943002194","85.52397720515727"
"3595","Godamchok Bus Route Point","गोदामचोक","27.62787082801114","85.52316617220639"
"3596","Dhaneshowr Bus Route Point","धनेश्वर पनौती","27.622033989838343","85.52405532449484"
"3597","Khadpu Bus Route Point","खड्पु बस रुट पोइन्ट","27.615720027699993","85.52889939397573"
"3598","Khadpu Chowk Bus Route Point","खड्पु चोक","27.61379671311543","85.53017646074294"
"3599","Chaukot Bus Route Point","चौकोट","27.609619017270422","85.5311269685626"
"3601","Subba Gau","सुब्बा गाउँ ","27.600494793970093","85.52577327936888"
"3602","Basghari Subba Gaaun","बाँसघारी  सुब्बागाउँ","27.59763020755311","85.5235718563199"
"3603","Thadobato Bus Route Point","ठाडो बाटो","27.593130091507458","85.5178403109312"
"3604","Dhug Mil","ढग मिल","27.58952897420945","85.51592018455267"
"3605","Panauti Pul","पनौती पूल","27.588247947531286","85.51381532102825"
"3606","Panauti Bus Park","पनौती","27.586998404654903","85.5132909491658"
"3607","Brabayadi Buspark(bhaktapur)","ब्र्यब्यादी बसपार्क","27.6740071003508","85.44275857508181"
"3608","Bhaise Pati Bus Route Point","भैंसेपाटि भक्तपुर","27.633409729039908","85.49233384430408"
"3609","Krishna Chowk","कृष्ण चोक","27.63634080430179","85.48641387373209"
"3610","Chauki Bus Route Point","चौकी","27.641230012431226","85.47911021858454"
"3611","Sanga Bus Route Point","साँगा","27.641955905028876","85.47725815325975"
"3612","Bimal Chowk","बिमल चोक","27.65230321193075","85.46122793108225"
"3613","Basghari Nalinchok","बाँसघारी नलिन्चोक","27.658708013204787","85.45267369598152"
"3614","Planning","प्लान्निंग","27.656112520645863","85.37360988557337"
"3615","Milanchok Kadaghari","मिलन चोक काँडाघारी","27.654711404203326","85.3753861784935"
"3616","Pani Tanky Suyaal Gaau","पानि टंकी सुयाल गाउँ","27.651825665467506","85.38033686578272"
"3617","Mahadevthan Biruwa","महादेवथान बिरुवा","27.648851347488648","85.3857931494713"
"3618","Biruwa Buspark","बिरुवा बसपार्क","27.63718227097045","85.39320409297943"
"3619","Tower","टावर","27.638774594529405","85.39431720972063"
"3620","Tapoban","तपोबन","27.766196575809374","85.26912778615952"
"3621","ANFA khumaltar","एन्फा खुमलटार","27.66199238113836","85.32825339585541"
"3622","Tinkune Koteshwar ","तिनकुने कोटेश्वर","27.683025437468313","85.34950587898493"
"3623","Tinkune Gairigaun","तिनकुने गैरीगाउँ","27.68710176413345","85.35042587667702"
"3624","Tinkune Subidhanagar","तिनकुने सुविधानगर","27.685640479383654","85.34698460251093"
"3625","Gaushala Battisputali","गौशाला बत्तिसपुतली","27.70716825428624","85.34299816936255"
"3626","Basundhara Narayangopal Chok","बसुन्धरा नारायणगोपाल चोक","27.740684620112095","85.33587891608477"
"3627","Shivapuri School","शिवपुरी स्कूल ","27.730504754893982","85.3300303593278"
"3628","Hattisar","हात्तिसार","27.710579689340015","85.32197769731283"
"3629","Devithan","देवीथान","27.773139347745612","85.27166917920114"
"3630","Nepal Pragyapratisthan","नेपाल प्रज्ञा प्रतिष्ठान","27.707890443774506","85.32068554311991"
"3631","Kalopul","कालो पूल","27.71193794093052","85.33649347722532"
"3632","Sifal","सिफल","27.712070322064744","85.34055836498737"
"3633","Arab Bank Bouddha","अरब बैंक बौद्ध","27.721068597511678","85.3674116358161"
"3634","Sivapuri Chowk Kapan","शिवपुरी चोक कपन","27.731761561514254","85.35159297287463"
"3635","Rudramati Chowk","रुद्रमती चोक","27.733264962154674","85.35171166062355"
"3637","Bhaluwakhanii","बलुवाखानी","27.742441013590827","85.356340482831"
"3639","Bhangal","भंगाल","27.751046605892302","85.35921044647694"
"3640","Tutepani","टूटेपानी","27.653947880245905","85.32163202762604"
"3641","Sofiachok","सोफिया चोक","27.652252131189748","85.31854614615439"
"3642","Neuro Hospital","नयूरो अस्पताल","27.748640835376346","85.34537360072135"
"3643","Special Chok","स्पेसल चोक","27.753688204132406","85.34742850810288"
"3644","Ganesh Chok","गणेश चोक","27.760791391074463","85.35187795758247"
"3645","Ghumti Chok","घुम्ती चोक","27.766249679920815","85.35370554774998"
"3646","Chholing Gumba","छोलिंग गुम्बा","27.785368442126927","85.36567993462087"
"3647","Bishnumati Buspark","विष्णुमति बसपार्क","27.78216461521651","85.35896971821785"
"3648","Route Point","रुट पोइन्ट","27.744268000715074","85.3223853930831"
"3649","Route Point","रुट पोइन्ट","27.71918067442705","85.31251017004251"
"3650","Route Point","रुट पोइन्ट","27.717990800120713","85.31425159424543"
"3651","Route Point","रुट पोइन्ट","27.71790354018193","85.31487386673689"
"3652","Route Point","रुट पोइन्ट","27.71734970506496","85.31476590782404"
"3653","Route Point","रुट पोइन्ट","27.716878379073698","85.3159212693572"
"3654","Route Point","रुट पोइन्ट","27.70927395907215","85.31697034835815"
"3655","Route Point","रुट पोइन्ट","27.70913088879061","85.31717419624327"
"3656","Route Point","रुट पोइन्ट","27.706231745796245","85.31634908169508"
"3657","Route Point","रुट पोइन्ट","27.699774516186242","85.31667865812778"
"3658","Route Point","रुट पोइन्ट","27.699385639427206","85.31633701175451"
"3659","Route Point","रुट पोइन्ट","27.699906318376417","85.31352840363981"
"3660","Route Point","रुट पोइन्ट","27.704236703602117","85.31374096870424"
"3661","Route Point","रुट पोइन्ट","27.76465417190339","85.35364083945751"
"3662","Route Point","रुट पोइन्ट","27.724415492268246","85.32219998538493"
"3663","Route Point","रुट पोइन्ट","27.698526543415607","85.3214767947793"
"3664","Route Point","रुट पोइन्ट","27.698585617614953","85.32163135707378"
"3665","Route Point","रुट पोइन्ट","27.698455001251975","85.32171182334423"
"3666","Route Point","रुट पोइन्ट","27.698357632588788","85.32157033681868"
"3667","Route Point","रुट पोइन्ट","27.68872186132244","85.31601447612047"
"3668","Route Point","रुट पोइन्ट","27.68469755141608","85.3185749799013"
"3669","Route Point","रुट पोइन्ट","27.683123413601077","85.31859878450632"
"3670","Route Point","रुट पोइन्ट","27.67767313500042","85.31623542308807"
"3671","Route Point","रुट पोइन्ट","27.67456976612678","85.31454060226679"
"3672","Route Point","रुट पोइन्ट","27.673210752595146","85.31394146382807"
"3673","Route Point","रुट पोइन्ट","27.672898387908482","85.31381104141474"
"3674","Route Point","रुट पोइन्ट","27.672662629179058","85.31373158097267"
"3675","Route Point","रुट पोइन्ट","27.67162130588418","85.31825982034208"
"3676","Route Point","रुट पोइन्ट","27.667017926350745","85.3225500136614"
"3677","Dhulikhel Bus Park","धुलिखेल बसपार्क","27.622468889420823","85.55234257131815"
"3678","Route Point","रुट पोइन्ट","27.672848801416954","85.31337719410658"
"3679","Route Point","रुट पोइन्ट","27.673026956371487","85.31356662511826"
"3680","Budol Bus Route Point","बुडोल","27.62798816163535","85.53280871361494"
"3681","Route Point","रुट पोइन्ट","27.699203668376274","85.31638026237489"
"3682","Route Point","रुट पोइन्ट","27.765772632001763","85.35345107316971"
"3683","Route Point","रुट पोइन्ट","27.765900794334705","85.35345610231161"
"3684","Route Point","रुट पोइन्ट","27.766600641078345","85.35397209227085"
"3685","Route Point","रुट पोइन्ट","27.776775649115816","85.36207906901836"
"3686","Budhanilkantha Bus Route Point","बुढानिलकण्ठ","27.776975289161093","85.36206901073457"
"5060","Route Point","रुट पोइन्ट","27.697109049897968","85.31370207667351"
"5061","Gamcha 1","गाम्चा","27.761819402585193","85.36628745496274"
"5063","Lainchour Mod","रुट पोइन्ट","27.718059955056617","85.31729858368634"
"5094","Route Point","रुट पोइन्ट","27.702358581894558","85.31655192375182"
"5095","Route Point","रुट पोइन्ट","27.70163784002491","85.32224960625173"
"5139","Chabahil Pipalbot","चाबहिल पिपलबोट","27.715989443212532","85.34615680575371"
"5149","Route Point","रुट पोइन्ट","27.70997001409252","85.32602984458208"
"5150","Route Point","रुट पोइन्ट","27.709887793752145","85.32639965415001"
"5151","Route Point","रुट पोइन्ट","27.709704356090686","85.3268851339817"
"5152","Route Point","रुट पोइन्ट","27.709275740028804","85.32878682017328"
"5153","Route Point","रुट पोइन्ट","27.708854542964577","85.33097416162491"
"5154","Route Point","रुट पोइन्ट","27.70862984449979","85.3316755592823"
"5155","Route Point","रुट पोइन्ट","27.708608176063265","85.33182945102453"
"5156","Route Point","रुट पोइन्ट","27.70859303783793","85.33204235136509"
"5157","Route Point","रुट पोइन्ट","27.70830214604116","85.33302873373032"
"5158","Route Point","रुट पोइन्ट","27.708192913002883","85.33336367458105"
"5159","Route Point","रुट पोइन्ट","27.708225564194255","85.3336375951767"
"5160","Route Point","रुट पोइन्ट","27.708212503718883","85.33384211361408"
"5161","Route Point","रुट पोइन्ट","27.708103864249438","85.33635903149843"
"5162","Route Point","रुट पोइन्ट","27.708040045931423","85.3373470902443"
"5163","Route Point","रुट पोइन्ट","27.708036483977708","85.33752780407667"
"5164","Route Point","रुट पोइन्ट","27.70802075201398","85.3380049020052"
"5165","Route Point","रुट पोइन्ट","27.707954559009746","85.33937919884922"
"5166","Route Point","रुट पोइन्ट","27.70797800855396","85.34005142748356"
"5167","Route Point","रुट पोइन्ट","27.708019861525408","85.34035854041576"
"5168","Route Point","रुट पोइन्ट","27.708112472298783","85.34069448709488"
"5169","Route Point","रुट पोइन्ट","27.70814007741794","85.34085642546415"
"5170","Route Point","रुट पोइन्ट","27.708129391566192","85.34140527248381"
"5171","Route Point","रुट पोइन्ट","27.7079987866269","85.34210868179798"
"5172","Route Point","रुट पोइन्ट","27.708062604969033","85.34233130514622"
"5173","Route Point","रुट पोइन्ट","27.707849481243393","85.3430038690567"
"5174","Route Point","रुट पोइन्ट","27.707834639742813","85.343081317842"
"5175","Route Point","रुट पोइन्ट","27.70783048412228","85.34325532615185"
"5176","Route Point","रुट पोइन्ट","27.70790439477797","85.3432734310627"
"5177","Route Point","रुट पोइन्ट","27.707950403393788","85.34335993230343"
"5178","Route Point","रुट पोइन्ट","27.708061120821966","85.34339245408773"
"5179","Route Point","रुट पोइन्ट","27.70902106292855","85.3437964618206"
"5180","Route Point","रुट पोइन्ट","27.709292362289762","85.34387994557619"
"5181","Route Point","रुट पोइन्ट","27.710157606839292","85.34406535327436"
"5182","Route Point","रुट पोइन्ट","27.714905198779412","85.34576352685689"
"5183","Route Point","रुट पोइन्ट","27.71715381415726","85.34679885953665"
"5184","Route Point","रुट पोइन्ट","27.717512056808133","85.34744828939438"
"6666","Route Point","रुट पोइन्ट","27.712518813905994","85.33451199531557"
"5185","Route Point","रुट पोइन्ट","27.71932907390385","85.35096500068903"
"5186","Route Point","रुट पोइन्ट","27.719428501440305","85.35144545137882"
"5187","Route Point","रुट पोइन्ट","27.719431469425057","85.35158291459084"
"7777","Route Point","रुट पोइन्ट","27.711832273362795","85.33693436533213"
"5188","Route Point","रुट पोइन्ट","27.720685732557865","85.36100484430791"
"5189","Route Point","रुट पोइन्ट","27.72070294666992","85.36117617040873"
"5190","Route Point","रुट पोइन्ट","27.720732032577228","85.36137733608484"
"5191","airport Bhitra","एयरपोर्ट भित्र","27.699857337851366","85.35646185278893"
"7778","Route Point","रुट पोइन्ट","27.69814923960919","85.35523172467947"
"7779","Route Point","रुट पोइन्ट","27.699644494950793","85.35456854850054"
"5192","Route Point","रुट पोइन्ट","27.72060767542945","85.36237344145775"
"5193","Route Point","रुट पोइन्ट","27.72056760806044","85.3626772016287"
"7781","Air","एरपोर्ट","27.70117149256368","85.35390704870224"
"5194","Route Point","रुट पोइन्ट","27.720431082099946","85.36375042051077"
"7782","Air","रुट पोइन्ट","27.701190787692283","85.35465940833092"
"7783","Air","रुट पोइन्ट","27.700663881031286","85.35628013312817"
"7784","Air","रुट पोइन्ट","27.700723547772473","85.35664558410645"
"5195","Route Point","रुट पोइन्ट","27.720448593047927","85.36418091505764"
"7785","Air","रुट पोइन्ट","27.700502691612154","85.35678941756485"
"5196","Pipalbot Bouddha","पिपलबस्ती बौद्ध","27.72054772276813","85.36477636545895"
"7786","Air","रुट पोइन्ट","27.693698084292027","85.35422857850789"
"5197","Route Point","रुट पोइन्ट","27.72071333449484","85.36567255854608"
"7787","Air","रुट पोइन्ट","27.686211991899704","85.34902978688478"
"5198","Route Point","रुट पोइन्ट","27.72123836355711","85.36839600652456"
"7789","Tin","रुट पोइन्ट","27.685866412741014","85.3480004891753"
"5199","Route Point","रुट पोइन्ट","27.721308406813517","85.36891937255861"
"5200","Route Point","रुट पोइन्ट","27.72137518529995","85.3694685548544"
"5201","Route Point","रुट पोइन्ट","27.72150043195091","85.37158682942389"
"5202","Route Point","रुट पोइन्ट","27.721533079158572","85.37200961261988"
"5203","Route Point","रुट पोइन्ट","27.72158679863353","85.37230364978313"
"5204","Route Point","रुट पोइन्ट","27.721621523362924","85.37237875163555"
"5205","Route Point","रुट पोइन्ट","27.72167494600193","85.37247866392136"
"5206","Route Point","रुट पोइन्ट","27.721893384964677","85.37270966917276"
"7790","Route Point","रुट पोइन्ट","27.698900580520014","85.33026840537788"
"5207","Route Point","रुट पोइन्ट","27.721985093583566","85.37277471274137"
"5208","Route Point","रुट पोइन्ट","27.722722914810785","85.37304729223251"
"5209","Route Point","रुट पोइन्ट","27.72278909885224","85.3730570152402"
"5210","Route Point","रुट पोइन्ट","27.723009613103944","85.37322901189326"
"5211","Route Point","रुट पोइन्ट","27.72301258099124","85.37332557141781"
"5212","Route Point","रुट पोइन्ट","27.722987650735494","85.37346269935368"
"5213","Route Point","रुट पोइन्ट","27.722979340648962","85.3736075386405"
"5214","Route Point","रुट पोइन्ट","27.723038995184577","85.37387777119874"
"5215","Route Point","रुट पोइन्ट","27.723144355105543","85.37398204207419"
"5216","Route Point","रुट पोइन्ट","27.72319540269259","85.37401322275402"
"5217","Route Point","रुट पोइन्ट","27.72333697058513","85.37406988441944"
"5218","Route Point","रुट पोइन्ट","27.72344856275661","85.37409201264381"
"5219","Route Point","रुट पोइन्ट","27.723603782528613","85.3741754963994"
"5220","Route Point","रुट पोइन्ट","27.723664920657292","85.37425361573695"
"5221","Route Point","रुट पोइन्ट","27.72378600966534","85.37443298846483"
"5222","Route Point","रुट पोइन्ट","27.724143043384117","85.37501335144044"
"5223","Route Point","रुट पोइन्ट","27.724233859754467","85.37507571280001"
"5224","Route Point","रुट पोइन्ट","27.724741064823952","85.37507236003876"
"5225","Route Point","रुट पोइन्ट","27.724914386553646","85.37510119378567"
"5226","Route Point","रुट पोइन्ट","27.7250918629708","85.37520311772822"
"7791","Route Point","रुट पोइन्ट","27.700045541688212","85.33232465386389"
"5227","Route Point","रुट पोइन्ट","27.725242628663395","85.37543915212154"
"5228","Route Point","रुट पोइन्ट","27.72526666805573","85.37555482238531"
"5229","Route Point","रुट पोइन्ट","27.72532750846945","85.37597894668579"
"5231","Route Point","रुट पोइन्ट","27.72545334414425","85.37618480622768"
"5232","Route Point","रुट पोइन्ट","27.72555810816835","85.37632327526806"
"5233","Route Point","रुट पोइन्ट","27.725818682273264","85.37657372653484"
"5234","Route Point","रुट पोइन्ट","27.72703636826802","85.37745684385301"
"5235","Route Point","रुट पोइन्ट","27.72887489105352","85.37870708853006"
"7792","Route Point","रुट पोइन्ट","27.700710783248475","85.33461291342974"
"5236","Route Point","रुट पोइन्ट","27.729092128501154","85.37877649068832"
"5237","Route Point","रुट पोइन्ट","27.72930521071361","85.37883751094341"
"5238","Route Point","रुट पोइन्ट","27.729466357569798","85.37893138825895"
"5239","Route Point","रुट पोइन्ट","27.729539956791342","85.37894748151302"
"5240","Route Point","रुट पोइन्ट","27.72973256097058","85.37881940603256"
"5241","Route Point","रुट पोइन्ट","27.729843553054867","85.37876341491938"
"5242","Route Point","रुट पोइन्ट","27.730001434648504","85.37871278822422"
"5243","Route Point","रुट पोइन्ट","27.73029256533333","85.37874095141888"
"7793","Route Point","रुट पोइन्ट","27.702032348829093","85.33508464694022"
"5244","Route Point","रुट पोइन्ट","27.730358151241628","85.37877246737479"
"5245","Route Point","रुट पोइन्ट","27.730777781413252","85.37909634411335"
"5246","Route Point","रुट पोइन्ट","27.731314039118317","85.37932466715574"
"5247","Route Point","रुट पोइन्ट","27.731378437348162","85.37935953587294"
"5248","Route Point","रुट पोइन्ट","27.731429481079335","85.37942558526993"
"5249","Route Point","रुट पोइन्ट","27.73152830404911","85.3795952349901"
"5250","Route Point","रुट पोइन्ट","27.731608727480896","85.37975449115038"
"5251","Route Point","रुट पोइन्ट","27.73174939415245","85.3799258172512"
"5252","Route Point","रुट पोइन्ट","27.73199511524443","85.38010150194168"
"5253","Route Point","रुट पोइन्ट","27.732176141298364","85.38024868816136"
"5254","Route Point","रुट पोइन्ट","27.73230612375489","85.3803838044405"
"5255","Route Point","रुट पोइन्ट","27.732781240958527","85.38103960454463"
"5256","Route Point","रुट पोइन्ट","27.733367641347055","85.38164980709553"
"5258","Route Point","रुट पोइन्ट","27.73415494419406","85.38203973323107"
"5259","Route Point","रुट पोइन्ट","27.734217856954114","85.38210242986678"
"7794","Route Point","रुट पोइन्ट","27.68139397349206","85.30710283666848"
"7798","Bhotahity","भोटाहिटी","27.707079501528522","85.3143635764718"
"7799","Rat","रुट पोइन्ट","27.70698303105782","85.31463749706745"
"7801","Jamal Durbarmarg","जमल दरबारमार्ग","27.708693959300458","85.31474109739065"
"7802","Tripureshwor Durbarmarg","त्रिपुरेश्वर दरबारमार्ग","27.70920004934432","85.31652342528105"
"7803","Durbar","दरबार","27.709578205416342","85.31723320484161"
"7805","Tindara Hattisar","तिनधारा हात्तिसार","27.709931426936887","85.31830005347729"
"7806","Th","रुट पोइन्ट","27.71000889805861","85.31933773308992"
"7807","Ktm Bank","बैंक अफ काठमाडौँ","27.709855736707322","85.3208277001977"
"7808","Putalisadak Star Mall","पुतलीसडक स्टार मल","27.709724243360153","85.32208565622568"
"7809","Putalisadak","पुतलीसडक कृष्ण पाउरोटी","27.710204801799158","85.32214298844339"
"7812","Gyaneshor","ज्ञानेश्वर","27.70905638531246","85.32990094274282"
"7813","Gausala Ratopul","गौशाला रातोपुल ","27.708173915941593","85.34178648144007"
"7814","Aa","रुट पोइन्ट","27.713035868392744","85.3454004228115"
"7815","Ssaa","रुट पोइन्ट","27.711831976543635","85.34485660493374"
"7818","Sssd","रुट पोइन्ट","27.717168357585237","85.34655980765818"
"7819","Rrr","रुट पोइन्ट","27.717145503626142","85.34671269357204"
"7820","Sss","रुट पोइन्ट","27.71828344688866","85.34879341721535"
"7823","R","रुट पोइन्ट","27.72190822455227","85.37323638796806"
"7824","R","रुट पोइन्ट","27.721898133632944","85.37454631179571"
"7825","R","रुट पोइन्ट","27.721676133171393","85.37788230925797"
"7826","R","रुट पोइन्ट","27.72179455325993","85.38193546235561"
"7827","Route Point","रुट पोइन्ट","27.724627990053808","85.3834881260991"
"7828","Makalbari","माकलबारी","27.728767459259565","85.38460928946733"
"7829","Makalbari","माकलबारी","27.730615152655883","85.38495428860188"
"7830","R","रुट पोइन्ट","27.710251106268245","85.32312534749508"
"7831","E","रुट पोइन्ट","27.712763094258857","85.34528844058512"
"7832","R","रुट पोइन्ट","27.717966165519222","85.3481087833643"
"7834","T","रुट पोइन्ट","27.720439985972142","85.36402769386768"
"7835","D","रुट पोइन्ट","27.72274665796931","85.38864802569151"
"7836","D","रुट पोइन्ट","27.72265079493514","85.38897927850486"
"7837","D","रुट पोइन्ट","27.722403272036114","85.38722980767488"
"7838","R","रुट पोइन्ट","27.722381903126397","85.38951940834521"
"7839","R","रुट पोइन्ट","27.722242708320334","85.39035391062498"
"7840","D","रुट पोइन्ट","27.72175834462497","85.39117533713579"
"7841","G","रुट पोइन्ट","27.72128763127604","85.39160046726465"
"7842","H","रुट पोइन्ट","27.721563055222447","85.391257815063"
"7843","G","रुट पोइन्ट","27.72021204661493","85.39275549352169"
"7844","F","रुट पोइन्ट","27.719592927674796","85.39309445768595"
"7846","D","रुट पोइन्ट","27.71909163464404","85.39332546293736"
"7847","R","रुट पोइन्ट","27.71895540363531","85.3934669494629"
"7848","R","रुट पोइन्ट","27.721871719163207","85.39104524999858"
"7849","T","रुट पोइन्ट","27.72204089037543","85.38466963917017"
"7850","D","रुट पोइन्ट","27.72426799007017","85.38442488759755"
"7851","D","रुट पोइन्ट","27.72487521111832","85.38451138883829"
"7852","R","रुट पोइन्ट","27.72653392234405","85.38523524999619"
"7853","T","रुट पोइन्ट","27.728203885766003","85.38621325045824"
"7854","Dhaneshwor Godawari","धनेश्वर गोदावरी","27.603114186358557","85.35118896514177"
"7855","Badikhel VDC","बडीखेल गा.बि.स","27.59728018864582","85.34757435321808"
"7856","Badikhel","बडीखेल","27.589228553847484","85.35132475197315"
"7859","Harishiddhi Thaiba","हरिसिद्दी ठैब","27.639233782954022","85.33976577222347"
"7860","Dhusal Dhara","धुसल धारा","27.63015895951849","85.34502826631069"
"7861","Hadigaun Godawari","हाडीगाउँ गोदावरी","27.615840939304995","85.35463996231557"
"7862","Ram Mandir","राम मन्दिर","27.625979808508365","85.31855821609497"
"7863","Chapagaun Police Route Point","चापागाउँ पुलिस रुट पोइन्ट","27.607549718364243","85.32305896282196"
"7864","Bajrabarahi","बज्रबाराही","27.606288511275658","85.3269300609827"
"7867","Route Point","रुट पोइन्ट","27.70569269320718","85.32278537750244"
"7868","Route Point","रुट पोइन्ट","27.731644339313654","85.379822216928"
"7869","Route Point","रुट पोइन्ट","27.733100259779896","85.38143590092659"
"7870","Route Point","रुट पोइन्ट","27.733879848821267","85.38182649761438"
"7871","Route Point","रुट पोइन्ट","27.73428611132255","85.38218021392822"
"7872","Route Point","रुट पोइन्ट","27.734356146195292","85.38229253143072"
"7873","Route Point","रुट पोइन्ट","27.734437754570713","85.38240820169449"
"7874","Route Point","रुट पोइन्ट","27.734938086765595","85.38283098489046"
"7875","Route Point","रुट पोइन्ट","27.737196675216655","85.38442153483629"
"7876","Route Point","रुट पोइन्ट","27.737254541471632","85.38447249680758"
"7877","Route Point","रुट पोइन्ट","27.737590758642433","85.38469947874547"
"7878","Route Point","रुट पोइन्ट","27.737836169814674","85.3848134726286"
"7879","Route Point","रुट पोइन्ट","27.737896706463818","85.38487315177917"
"7880","Route Point","रुट पोइन्ट","27.73801956014841","85.38535661995411"
"7881","Route Point","रुट पोइन्ट","27.738100275537278","85.38549609482288"
"7882","Route Point","रुट पोइन्ट","27.73818811280429","85.38566306233406"
"7883","Ss","रुट पोइन्ट","27.73813618199621","85.38553465157747"
"7884","Route Point","रुट पोइन्ट","27.738176836402342","85.38572005927563"
"7885","Route Point","रुट पोइन्ट","27.738141523451883","85.3858132660389"
"7886","Route Point","रुट पोइन्ट","27.73812460884131","85.3858719393611"
"7887","Route Point","रुट पोइन्ट","27.738116003161252","85.38597352802753"
"7888","Route Point","रुट पोइन्ट","27.738117783646832","85.38612239062788"
"7889","Route Point","रुट पोइन्ट","27.738138852724084","85.38623504340649"
"7890","Route Point","रुट पोइन्ट","27.738218381035292","85.38647912442683"
"7891","Route Point","रुट पोइन्ट","27.738253397213615","85.38664642721415"
"7892","Route Point","रुट पोइन्ट","27.73829405157603","85.38672052323818"
"7893","Route Point","रुट पोइन्ट","27.73839405530808","85.3868378698826"
"7894","Route Point","रुट पोइन्ट","27.73879495955558","85.38722544908524"
"7895","Route Point","रुट पोइन्ट","27.739308031751445","85.38752384483813"
"7896","Route Point","रुट पोइन्ट","27.739429400124553","85.38756273686886"
"7897","Route Point","रुट पोइन्ट","27.73975344411606","85.38758520036937"
"7898","Route Point","रुट पोइन्ट","27.739911904837946","85.38757748901844"
"7899","Route Point","रुट पोइन्ट","27.740186094756105","85.38757178932428"
"7900","E","रुट पोइन्ट","27.740230012557667","85.3876519203186"
"7901","Route Point","रुट पोइन्ट","27.740257609545523","85.38774210959674"
"7902","Route Point","रुट पोइन्ट","27.74027927169241","85.3879127651453"
"7903","Route Point","रुट पोइन्ट","27.74028372281795","85.38800463080406"
"7904","Route Point","रुट पोइन्ट","27.740225561429938","85.39080753922464"
"7905","Route Point","रुट पोइन्ट","27.740245739874197","85.3910056874156"
"7906","Route Point","रुट पोइन्ट","27.74029974686835","85.39129503071308"
"7907","Route Point","रुट पोइन्ट","27.740307758892683","85.39143517613412"
"7908","Route Point","रुट पोइन्ट","27.74006739790654","85.39403825998305"
"7909","Route Point","रुट पोइन्ट","27.740092620997896","85.39418444037437"
"7910","Route Point","रुट पोइन्ट","27.74022259401135","85.39457470178606"
"7911","Route Point","रुट पोइन्ट","27.740280458659235","85.39483722299337"
"7912","Route Point","रुट पोइन्ट","27.740297966418446","85.39505682885647"
"7913","Route Point","रुट पोइन्ट","27.740260576963166","85.39517283439636"
"7914","Route Point","रुट पोइन्ट","27.74014069322642","85.39542596787214"
"7915","Route Point","रुट पोइन्ट","27.740105677654643","85.39551850408316"
"7916","Route Point","रुट पोइन्ट","27.740095291677804","85.39562545716761"
"7917","Route Point","रुट पोइन्ट","27.740098555842067","85.39647907018661"
"7918","Route Point","रुट पोइन्ट","27.740493518995248","85.40014497935773"
"7919","Sss","रुट पोइन्ट","27.740519928952157","85.40022980421782"
"7920","Route Point","रुट पोइन्ट","27.74092438625658","85.40102206170559"
"7921","Route Point","रुट पोइन्ट","27.741150205125493","85.40136471390724"
"7922","Route Point","रुट पोइन्ट","27.741188187753913","85.40147535502912"
"7923","Route Point","रुट पोइन्ट","27.741322017065702","85.4019098728895"
"7924","Route Point","रुट पोइन्ट","27.744718437204146","85.40904220193626"
"7925","Route Point","रुट पोइन्ट","27.74482525981366","85.40928225964308"
"7926","Route Point","रुट पोइन्ट","27.744928521569975","85.40964402258396"
"7927","Route Point","रुट पोइन्ट","27.74507896309143","85.40987133979797"
"7928","Route Point","रुट पोइन्ट","27.74518845590245","85.40997561067343"
"7929","Route Point","रुट पोइन्ट","27.745302992979937","85.41003797203304"
"7930","Route Point","रुट पोइन्ट","27.74545343398421","85.41009027510881"
"7931","Route Point","रुट पोइन्ट","27.745570641328744","85.41016001254322"
"7932","Route Point","रुट पोइन्ट","27.745750754647812","85.41032161563635"
"7933","Route Point","रुट पोइन्ट","27.746019292074546","85.41045639663935"
"7934","Route Point","रुट पोइन्ट","27.746252518517935","85.41050098836422"
"7935","Route Point","रुट पोइन्ट","27.746338272135535","85.41054558008909"
"7936","Route Point","रुट पोइन्ट","27.747028156049115","85.41105218231678"
"7937","Route Point","रुट पोइन्ट","27.747075631770638","85.4111021384597"
"7938","Route Point","रुट पोइन्ट","27.74711420577913","85.41117388755082"
"7939","Route Point","रुट पोइन्ट","27.74723348839588","85.41131369769573"
"7940","Route Point","रुट पोइन्ट","27.747316570738327","85.41137270629406"
"7941","Route Point","रुट पोइन्ट","27.7474794712901","85.41144445538521"
"7942","Route Point","रुट पोइन्ट","27.74795244528193","85.41165065020323"
"7943","Route Point","रुट पोइन्ट","27.74837794208658","85.41198693215848"
"7944","Route Point","रुट पोइन्ट","27.748544995119605","85.41216127574444"
"7945","Route Point","रुट पोइन्ट","27.748759819602512","85.41256327182055"
"7946","Route Point","रुट पोइन्ट","27.74883488938405","85.41274331510066"
"7947","Route Point","रुट पोइन्ट","27.74900609576733","85.41296727955341"
"7948","Route Point","रुट पोइन्ट","27.753478433369597","85.41705429553987"
"7949","Route Point","रुट पोइन्ट","27.754894007298322","85.41833270341158"
"7950","Route Point","रुट पोइन्ट","27.75526162032189","85.4187075421214"
"7951","Route Point","रुट पोइन्ट","27.75552746399499","85.41892144829035"
"7952","Route Point","रुट पोइन्ट","27.754471799687398","85.41795451194048"
"7953","Route Point","रुट पोइन्ट","27.755944030230815","85.41897274553776"
"7954","Route Point","रुट पोइन्ट","27.756061226284814","85.41902136057615"
"7955","Route Point","रुट पोइन्ट","27.756392638240797","85.41931238025427"
"7956","Route Point","रुट पोइन्ट","27.756515767761513","85.41937440633774"
"7957","Route Point","रुट पोइन्ट","27.756913341648684","85.41941966861486"
"7958","Route Point","रुट पोइन्ट","27.757039437540993","85.4194075986743"
"7959","Route Point","रुट पोइन्ट","27.75727679411852","85.4193338379264"
"7960","Route Point","रुट पोइन्ट","27.757408823490806","85.41930232197045"
"7961","Route Point","रुट पोइन्ट","27.757639058597352","85.41932243853806"
"7962","Route Point","रुट पोइन्ट","27.75772777019017","85.4193552955985"
"7963","Route Point","रुट पोइन्ट","27.757774944552892","85.4194025695324"
"7964","Route Point","रुट पोइन्ट","27.757794823051814","85.41946392506361"
"7965","Route Point","रुट पोइन्ट","27.757804910646897","85.41953735053539"
"7966","Route Point","रुट पोइन्ट","27.757758626379427","85.41969627141953"
"7967","Route Point","रुट पोइन्ट","27.757743791674116","85.41978679597379"
"7968","Route Point","रुट पोइन्ट","27.757744088368266","85.4198582097888"
"7969","Route Point","रुट पोइन्ट","27.757750912332913","85.4199319705367"
"7970","Route Point","रुट पोइन्ट","27.75777138422433","85.42000439018013"
"7971","Route Point","रुट पोइन्ट","27.757859205627884","85.42012978345156"
"7972","Route Point","रुट पोइन्ट","27.758094780259118","85.42034737765789"
"7973","Route Point","रुट पोइन्ट","27.758589366648717","85.42069103568791"
"7976","Route Point","रुट पोइन्ट","27.758925517963227","85.42065147310495"
"7977","Route Point","रुट पोइन्ट","27.758727031566732","85.42068667709826"
"7978","Route Point","रुट पोइन्ट","27.75864425462181","85.42069271206854"
"7979","Route Point","रुट पोइन्ट","27.756789619184183","85.41940927505493"
"7980","Route Point","रुट पोइन्ट","27.75616863116529","85.41911993175745"
"7981","Route Point","रुट पोइन्ट","27.746598203103773","85.41075009852648"
"7982","Route Point","रुट पोइन्ट","27.740599455525334","85.40040280669928"
"7983","Route Point","रुट पोइन्ट","27.740070365329352","85.39368353784084"
"7984","Route Point","रुट पोइन्ट","27.740243959423378","85.39031635969879"
"7985","Baikuntha Rimal","रुट पोइन्ट","-51.12193520980864","-29.445403218269348"
"7986","Route Point","रुट पोइन्ट","27.747707947063304","85.34482844173908"
"7987","Route Point","रुट पोइन्ट","27.749577276295074","85.34547083079815"
"7988","Route Point","रुट पोइन्ट","27.750331230004626","85.34542825073005"
"7989","Route Point","रुट पोइन्ट","27.751981839284593","85.34625940024853"
"7990","Route Point","रुट पोइन्ट","27.753034263956767","85.34693665802479"
"7991","Route Point","रुट पोइन्ट","27.755122170814186","85.34831330180167"
"7992","Route Point","रुट पोइन्ट","27.757997168162692","85.35003896802662"
"7993","Route Point","रुट पोइन्ट","27.76004255348989","85.35147428512573"
"7994","Route Point","रुट पोइन्ट","27.761856784638987","85.35243820399046"
"7995","Route Point","रुट पोइन्ट","27.76784190121423","85.35597737878561"
"7996","Route Point","रुट पोइन्ट","27.76843701278767","85.3564940392971"
"7997","Route Point","रुट पोइन्ट","27.773839147933774","85.36043420433998"
"7998","Route Point","रुट पोइन्ट","27.77427166313707","85.36067191511394"
"7999","Route Point","रुट पोइन्ट","27.73592153255753","85.31865712255238"
"8000","Route Point","रुट पोइन्ट","27.73633105172424","85.31899977475406"
"8001","Route Point","रुट पोइन्ट","27.736716532490114","85.31919289380313"
"8002","Route Point","रुट पोइन्ट","27.73715483344395","85.31938433647156"
"8003","Route Point","रुट पोइन्ट","27.73763675473254","85.31943898648024"
"8004","Route Point","रुट पोइन्ट","27.738122531608248","85.31986612826584"
"8005","Route Point","रुट पोइन्ट","27.738448656713526","85.32003846019506"
"8006","Route Point","रुट पोइन्ट","27.738735313643268","85.32016921788454"
"8007","Route Point","रुट पोइन्ट","27.739106245403974","85.32052695751192"
"8008","Route Point","रुट पोइन्ट","27.73944661127653","85.32081663608551"
"8009","Route Point","रुट पोइन्ट","27.739890539360808","85.3210623934865"
"8010","Route Point","रुट पोइन्ट","27.74051369738987","85.32126624137165"
"8011","Route Point","रुट पोइन्ट","27.741007770151","85.32144997268915"
"8012","Route Point","रुट पोइन्ट","27.741439525594135","85.32163672149181"
"8013","Route Point","रुट पोइन्ट","27.74210303096728","85.32216243445873"
"8014","Route Point","रुट पोइन्ट","27.743557031293935","85.32238740473986"
"8015","Route Point","रुट पोइन्ट","27.74474840689126","85.32290004193783"
"8016","Route Point","रुट पोइन्ट","27.745853718800184","85.32373018562792"
"8017","Route Point","रुट पोइन्ट","27.746369428277465","85.32394107431175"
"8018","Route Point","रुट पोइन्ट","27.747709430670643","85.32459855079651"
"8019","Route Point","रुट पोइन्ट","27.748091013810186","85.32469276338817"
"8020","Route Point","रुट पोइन्ट","27.748730444456505","85.32475948333742"
"8021","Route Point","रुट पोइन्ट","27.749695369349947","85.32522082328796"
"8022","Route Point","रुट पोइन्ट","27.75028197541556","85.32528351992367"
"8023","Route Point","रुट पोइन्ट","27.751740910638162","85.32611802220343"
"8024","Route Point","रुट पोइन्ट","27.752335813533424","85.32674297690392"
"8025","Route Point","रुट पोइन्ट","27.754721920064974","85.32806497067213"
"8026","Route Point","रुट पोइन्ट","27.71891563245904","85.31310763210058"
"8027","Route Point","रुट पोइन्ट","27.71856807924929","85.31356327235697"
"8029","Route Point","रुट पोइन्ट","27.725530804239753","85.31406652182342"
"8028","Route Point","रुट पोइन्ट","27.690819312629483","85.31698342412709"
"8033","Route Point","रुट पोइन्ट","27.684776821807404","85.34817449748516"
"8034","Route Point","रुट पोइन्ट","27.683616855697153","85.34909013658762"
"8035","Route Point","रुट पोइन्ट","27.676592963605902","85.34989211708307"
"8036","Route Point","रुट पोइन्ट","27.675331067608564","85.35130798816682"
"8037","Route Point","रुट पोइन्ट","27.674713178628956","85.39600633084774"
"8038","Route Point","रुट पोइन्ट","27.665349105127294","85.42736168950795"
"8039","Route Point","रुट पोइन्ट","27.66524636192032","85.42974416166544"
"8040","Route Point","रुट पोइन्ट","27.66625953637711","85.433242097497"
"8041","Route Point","रुट पोइन्ट","27.665862225825038","85.43916307389738"
"8042","Route Point","रुट पोइन्ट","27.66339548292466","85.44286821037531"
"8043","Route Point","रुट पोइन्ट","27.66324225617707","85.44369768351316"
"8044","Route Point","रुट पोइन्ट","27.69962698066295","85.31648319214584"
"8045","Route Point","रुट पोइन्ट","27.690522139034524","85.31751751899719"
"8048","Route Point","रुट पोइन्ट","27.66801326808706","85.43705720454456"
"8049","Route Point","रुट पोइन्ट","27.67254801580943","85.43834164738655"
"8050","Route Point","रुट पोइन्ट","27.72771183238163","85.46273164451122"
"8051","Route Point","रुट पोइन्ट","27.7279477689921","85.46353194862604"
"8052","Route Point","रुट पोइन्ट","27.728069446792876","85.46392455697058"
"8053","Route Point","रुट पोइन्ट","27.729049393299768","85.46455521136522"
"8054","Route Point","रुट पोइन्ट","27.72922181786392","85.46463634818794"
"8055","Route Point","रुट पोइन्ट","27.72937287461594","85.46487338840961"
"8056","Route Point","रुट पोइन्ट","27.73152919434573","85.46558484435081"
"8057","Route Point","रुट पोइन्ट","27.731251421448192","85.46562574803828"
"8058","Route Point","रुट पोइन्ट","27.730917262088514","85.46550672501326"
"8059","Route Point","रुट पोइन्ट","27.73043085955541","85.46588558703661"
"8060","Route Point","रुट पोइन्ट","27.73026170136281","85.46587117016315"
"8061","Route Point","रुट पोइन्ट","27.72992842927837","85.46554528176783"
"8062","Route Point","रुट पोइन्ट","27.727685419320498","85.46179957687853"
"8063","Route Point","रुट पोइन्ट","27.727439391735768","85.46090975403786"
"8064","Route Point","रुट पोइन्ट","27.726896882626487","85.45988716185093"
"8065","Route Point","रुट पोइन्ट","27.726508399335117","85.45789428055286"
"8066","Route Point","रुट पोइन्ट","27.726146624879974","85.45744199305774"
"8067","Route Point","रुट पोइन्ट","27.72645675974066","85.45572135597467"
"8068","Route Point","रुट पोइन्ट","27.726937838003572","85.45517686754465"
"8069","Route Point","रुट पोइन्ट","27.72696929647116","85.45459382236005"
"8070","Route Point","रुट पोइन्ट","27.72718149250134","85.45345790684223"
"8071","Route Point","रुट पोइन्ट","27.72840391165758","85.45171983540058"
"8072","Route Point","रुट पोइन्ट","27.72827333099844","85.45010950416327"
"8073","Route Point","रुट पोइन्ट","27.729088567235017","85.44555343687534"
"8074","Route Point","रुट पोइन्ट","27.729336965269518","85.44497206807137"
"8075","Route Point","रुट पोइन्ट","27.729382668072002","85.44472698122263"
"8076","Route Point","रुट पोइन्ट","27.728889432918034","85.44077273458242"
"8077","Route Point","रुट पोइन्ट","27.728543988918005","85.44001031666996"
"8078","Route Point","रुट पोइन्ट","27.730226682616458","85.43616972863674"
"8079","Route Point","रुट पोइन्ट","27.728528556686292","85.42630154639482"
"8080","Route Point","रुट पोइन्ट","27.728435963250018","85.4260990396142"
"8081","Route Point","रुट पोइन्ट","27.7282917310099","85.42557433247566"
"8082","Route Point","रुट पोइन्ट","27.728188156711493","85.42418327182531"
"8083","Route Point","रुट पोइन्ट","27.727290706520886","85.42301081120969"
"8084","Route Point","रुट पोइन्ट","27.727059813709374","85.42294207960366"
"8085","Route Point","रुट पोइन्ट","27.726576658531638","85.42298633605242"
"8086","Route Point","रुट पोइन्ट","27.72654935485817","85.42292565107346"
"8087","Route Point","रुट पोइन्ट","27.726517005931836","85.42248610407115"
"8088","Route Point","रुट पोइन्ट","27.72617155441336","85.42193423956634"
"8089","Route Point","रुट पोइन्ट","27.726175412554905","85.42180683463812"
"8090","Route Point","रुट पोइन्ट","27.726586452238966","85.42089823633434"
"8091","Route Point","रुट पोइन्ट","27.726523238294533","85.4202913865447"
"8092","Route Point","रुट पोइन्ट","27.726652337156096","85.4193190857768"
"8093","Route Point","रुट पोइन्ट","27.727014109932927","85.41830118745564"
"8094","Route Point","रुट पोइन्ट","27.7272726031176","85.41673142462969"
"8095","Route Point","रुट पोइन्ट","27.727128666115654","85.41614402085544"
"8096","Route Point","रुट पोइन्ट","27.727166060076705","85.41534002870321"
"8097","Route Point","रुट पोइन्ट","27.72689124384148","85.4143600165844"
"8098","Route Point","रुट पोइन्ट","27.72701915515593","85.41193328797817"
"8099","Route Point","रुट पोइन्ट","27.726893618066768","85.41089996695518"
"8100","Route Point","रुट पोइन्ट","27.726772532510463","85.41076015681028"
"8101","Route Point","रुट पोइन्ट","27.726674595565058","85.41070617735386"
"8102","Route Point","रुट पोइन्ट","27.726624143164898","85.4106478393078"
"8103","Route Point","रुट पोइन्ट","27.726631562636964","85.41056267917158"
"8104","Route Point","रुट पोइन्ट","27.726769564725526","85.41037023067474"
"8105","Route Point","रुट पोइन्ट","27.727095723806027","85.41018549352884"
"8106","Route Point","रुट पोइन्ट","27.72750438580788","85.40984250605106"
"8107","Route Point","रुट पोइन्ट","27.72760736720357","85.40955483913422"
"8108","Route Point","रुट पोइन्ट","27.72761448983253","85.4094884544611"
"8109","Route Point","रुट पोइन्ट","27.727386862251887","85.40867004543543"
"8110","Route Point","रुट पोइन्ट","27.72712332412018","85.40806118398903"
"8111","Route Point","रुट पोइन्ट","27.7270577362654","85.40761157870293"
"8112","Route Point","रुट पोइन्ट","27.727104923911497","85.40668286383152"
"8113","Route Point","रुट पोइन्ट","27.727314448684584","85.40621247142553"
"8114","Route Point","रुट पोइन्ट","27.727341752166424","85.40595162659883"
"8115","Route Point","रुट पोइन्ट","27.72540496865439","85.40316715836525"
"8116","Route Point","रुट पोइन्ट","27.72464817138621","85.40265854448081"
"8117","Route Point","रुट पोइन्ट","27.72458020776663","85.40150284767152"
"8118","Route Point","रुट पोइन्ट","27.724064395159104","85.40050338953733"
"8119","Route Point","रुट पोइन्ट","27.723293936339548","85.39990458637475"
"8120","Route Point","रुट पोइन्ट","27.72295589433003","85.39838880300522"
"8121","Route Point","रुट पोइन्ट","27.722356972726452","85.39839752018452"
"8122","Route Point","रुट पोइन्ट","27.721815922284758","85.39847396314144"
"8123","Route Point","रुट पोइन्ट","27.721153183773655","85.39815846830606"
"8124","Route Point","रुट पोइन्ट","27.720897347229517","85.3972552344203"
"8125","Route Point","रुट पोइन्ट","27.721177520861428","85.39630472660066"
"8126","Route Point","रुट पोइन्ट","27.720749543476867","85.39587926119565"
"8127","Route Point","रुट पोइन्ट","27.720439985972142","85.39541188627481"
"8128","Route Point","रुट पोइन्ट","27.72013398914739","85.39511919021608"
"8129","Route Point","रुट पोइन्ट","27.719642492935126","85.39444092661141"
"8130","Route Point","रुट पोइन्ट","27.719223710296117","85.39412878453732"
"8131","Route Point","रुट पोइन्ट","27.71892156845643","85.39366811513901"
"8132","Route Point","रुट पोइन्ट","27.718999033192567","85.39340022951366"
"8133","Route Point","रुट पोइन्ट","27.720806528079923","85.39225928485394"
"8134","Route Point","रुट पोइन्ट","27.717146690844917","85.34662518650293"
"8135","Route Point","रुट पोइन्ट","27.728896852235902","85.42664587497711"
"8136","Route Point","रुट पोइन्ट","27.726396513516203","85.4222447052598"
"8137","Route Point","रुट पोइन्ट","27.724624725426175","85.4023802652955"
"8138","Route Point","रुट पोइन्ट","27.72305116351866","85.39891250431536"
"8139","Route Point","रुट पोइन्ट","27.721750331236912","85.37265837192537"
"8140","Route Point","रुट पोइन्ट","27.721963724591888","85.39081156253815"
"8142","Route Point","रुट पोइन्ट","27.72180345702078","85.37262786179781"
"8143","Route Point","रुट पोइन्ट","27.70775508926528","85.34330528229475"
"8144","Route Point","रुट पोइन्ट","27.708716518202856","85.33140264451502"
"8145","Pasikhel","पासिखेल","27.733887861317672","85.44097591191529"
"8146","Lakila Gagalfedi","लाकिला गागलफेदी","27.740485506984577","85.44465120881794"
"8147","Karkichok","कार्की चोक","27.748264298402578","85.44733073562382"
"8148","Thulodhik","ठुलो ढिक","27.73462678900926","85.42989872395992"
"8149","Subedigaun","सुबेदिगाउँ रामजानकी मन्दिर","27.73615389036057","85.43459560722113"
"8150","Wada Karalaya Gagalfedi","वडा कार्यालय गागलफेदी","27.75284170096961","85.44750139117241"
"8151","Ganesh Mandir Chunikhel","गणेश मन्दिर चुनिखेल","27.750950174327492","85.36506772041321"
"8152","Krishna Mandir Kapan Gumba","कृष्ण मन्दिर कपन गुम्बा","27.740497376629794","85.36371756345035"
"8153","Route Point","रुट पोइन्ट","27.71260192271442","85.28305783867835"
"8154","Route Point","रुट पोइन्ट","27.717709134284934","85.2837934345007"
"8155","Route Point","रुट पोइन्ट","27.71804452134083","85.28392754495144"
"8156","Route Point","रुट पोइन्ट","27.718296209356588","85.28415855020285"
"8157","Route Point","रुट पोइन्ट","27.718484381385085","85.28445560485125"
"8158","Route Point","रुट पोइन्ट","27.725883083749896","85.30216388404368"
"8159","Route Point","रुट पोइन्ट","27.72621607142305","85.30320860445498"
"8160","Route Point","रुट पोइन्ट","27.72674671277886","85.3041235730052"
"8161","Route Point","रुट पोइन्ट","27.726942883230112","85.30462112277748"
"8162","Route Point","रुट पोइन्ट","27.727208499239186","85.30452523380518"
"8163","Route Point","रुट पोइन्ट","27.727518037525876","85.30506066977976"
"8164","Route Point","रुट पोइन्ट","27.728095562986045","85.3052930161357"
"8165","Route Point","रुट पोइन्ट","27.73454755483397","85.30548077076674"
"8166","Route Point","रुट पोइन्ट","27.73500218609788","85.30564405024052"
"8167","Route Point","रुट पोइन्ट","27.735347609628267","85.30613489449026"
"8168","Route Point","रुट पोइन्ट","27.73536363440465","85.30668038874863"
"8169","Route Point","रुट पोइन्ट","27.734849653365664","85.31001269817352"
"8170","Route Point","रुट पोइन्ट","27.734823242034327","85.31110871583223"
"8171","Route Point","रुट पोइन्ट","27.73521110217837","85.31930051743984"
"8172","Route Point","रुट पोइन्ट","27.735493316304552","85.32063860446215"
"8173","Route Point","रुट पोइन्ट","27.73570015416423","85.3211338073015"
"8174","Route Point","रुट पोइन्ट","27.74211074612228","85.33201955258846"
"8175","Route Point","रुट पोइन्ट","27.741960597238545","85.33341094851492"
"8176","Route Point","रुट पोइन्ट","27.7248585912324","85.34482441842556"
"8177","Route Point","रुट पोइन्ट","27.7243047914421","85.34484218806028"
"8178","Route Point","रुट पोइन्ट","27.72340256067848","85.34508056938647"
"8179","Route Point","रुट पोइन्ट","27.71725739893865","85.34638445824385"
"8180","Route Point","रुट पोइन्ट","27.70779694232227","85.34347660839558"
"8181","Route Point","रुट पोइन्ट","27.707644074695967","85.34376494586469"
"8182","Route Point","रुट पोइन्ट","27.706820366809406","85.34483280032873"
"8183","Route Point","रुट पोइन्ट","27.7061023259242","85.34571122378111"
"8184","Route Point","रुट पोइन्ट","27.70589810342853","85.34614473581313"
"8185","Route Point","रुट पोइन्ट","27.705745233141656","85.34692257642746"
"8186","Route Point","रुट पोइन्ट","27.706223731267343","85.35017877817155"
"8187","Route Point","रुट पोइन्ट","27.706224324936166","85.35069040954113"
"8188","Route Point","रुट पोइन्ट","27.706099654411467","85.35111621022223"
"8189","Route Point","रुट पोइन्ट","27.705944706560782","85.35141561180353"
"8190","Route Point","रुट पोइन्ट","27.705729797683308","85.35165768116713"
"8191","Route Point","रुट पोइन्ट","27.70545848946275","85.35182297229765"
"8192","Route Point","रुट पोइन्ट","27.70499215833005","85.35198088735342"
"8193","Route Point","रुट पोइन्ट","27.704426384082563","85.35203520208597"
"8194","Route Point","रुट पोइन्ट","27.703189150847066","85.35207342356443"
"8195","Route Point","रुट पोइन्ट","27.70263820946009","85.35224206745625"
"8196","Route Point","रुट पोइन्ट","27.70227784004378","85.3524811193347"
"8197","Route Point","रुट पोइन्ट","27.698845959308493","85.35499937832355"
"8198","Route Point","रुट पोइन्ट","27.69726816631794","85.35527497529984"
"8199","Route Point","रुट पोइन्ट","27.686456331143134","85.35003561526537"
"8200","Route Point","रुट पोइन्ट","27.68527827250027","85.34955985844135"
"8201","Route Point","रुट पोइन्ट","27.684033102951886","85.34935466945171"
"8202","Route Point","रुट पोइन्ट","27.67514519651945","85.34400567412376"
"8203","Route Point","रुट पोइन्ट","27.66751025343811","85.33303610980511"
"8204","Route Point","रुट पोइन्ट","27.667075235950843","85.3324644640088"
"8205","Route Point","रुट पोइन्ट","27.65949229122475","85.32591719180346"
"8206","Route Point","रुट पोइन्ट","27.658562797914325","85.32434105873108"
"8207","Route Point","रुट पोइन्ट","27.658237027941336","85.32391425222158"
"8208","Route Point","रुट पोइन्ट","27.65792699618128","85.32327521592377"
"8209","Route Point","रुट पोइन्ट","27.657897893537974","85.3230120241642"
"8210","Route Point","रुट पोइन्ट","27.664965450809376","85.31377617269754"
"8211","Route Point","रुट पोइन्ट","27.66522171541409","85.3131502121687"
"8212","Route Point","रुट पोइन्ट","27.666927656246106","85.3078991174698"
"8213","Route Point","रुट पोइन्ट","27.673827462381993","85.30240394175053"
"8214","Route Point","रुट पोइन्ट","27.683650998719983","85.30236035585403"
"8215","Route Point","रुट पोइन्ट","27.684082090577228","85.30204351991415"
"8216","Route Point","रुट पोइन्ट","27.684463302619978","85.30124522745609"
"8217","Route Point","रुट पोइन्ट","27.68528747613267","85.29462687671185"
"8218","Route Point","रुट पोइन्ट","27.685655323902424","85.29322005808352"
"8219","Route Point","रुट पोइन्ट","27.68742418231237","85.29077757149935"
"8220","Route Point","रुट पोइन्ट","27.6879045420691","85.28987601399422"
"8221","Route Point","रुट पोइन्ट","27.688045561991988","85.28878200799227"
"8222","Route Point","रुट पोइन्ट","27.688350164403808","85.2866654098034"
"8223","Route Point","रुट पोइन्ट","27.688435666682455","85.28548523783684"
"8224","Route Point","रुट पोइन्ट","27.68848999622055","85.2852538973093"
"8225","Route Point","रुट पोइन्ट","27.68871889250222","85.28478283435106"
"8226","Route Point","रुट पोइन्ट","27.68906505639533","85.28435803949833"
"8227","Route Point","रुट पोइन्ट","27.689346796180892","85.28415653854607"
"8228","Route Point","रुट पोइन्ट","27.692552462794495","85.28198696672918"
"8229","Route Point","रुट पोइन्ट","27.693126907831324","85.28172746300697"
"8230","Route Point","रुट पोइन्ट","27.708404848743694","85.28262197971344"
"8231","Route Point","रुट पोइन्ट","27.72468437906146","85.29738754034042"
"8232","Route Point","रुट पोइन्ट","27.72604067429952","85.30266646295786"
"8233","Route Point","रुट पोइन्ट","27.72647723751379","85.30365116894244"
"8234","Route Point","रुट पोइन्ट","27.678743497712485","85.34964434802534"
"8235","Route Point","रुट पोइन्ट","27.670982313879094","85.33964909613132"
"8236","Route Point","रुट पोइन्ट","27.67442546267374","85.39816685020924"
"8237","Route Point","रुट पोइन्ट","27.66518430022538","85.42906053364277"
"8238","Route Point","रुट पोइन्ट","27.666433544878586","85.4324159771204"
"8239","Route Point","रुट पोइन्ट","27.666462645249396","85.43278142809868"
"8240","Route Point","रुट पोइन्ट","27.665686434746178","85.43947521597147"
"8241","Route Point","रुट पोइन्ट","27.665549246241564","85.4397025331855"
"8242","Route Point","रुट पोइन्ट","27.660765060618175","85.44707626104355"
"8243","Route Point","रुट पोइन्ट","27.660717844286122","85.44797144830228"
"8244","Route Point","रुट पोइन्ट","27.660079976367584","85.44920325279237"
"8245","Route Point","रुट पोइन्ट","27.65959622768514","85.45147743076086"
"8246","Route Point","रुट पोइन्ट","27.659422208298533","85.4519210010767"
"8247","Route Point","रुट पोइन्ट","27.65896963781185","85.45231059193611"
"8248","Route Point","रुट पोइन्ट","27.658321959860118","85.45368757098913"
"8249","Route Point","रुट पोइन्ट","27.657030749999574","85.45506320893764"
"8250","Route Point","रुट पोइन्ट","27.65667082401793","85.4553220421076"
"8251","Route Point","रुट पोइन्ट","27.65573447637143","85.45558623969556"
"8252","Route Point","रुट पोइन्ट","27.654442642002564","85.45636408030987"
"8253","Route Point","रुट पोइन्ट","27.653913133987977","85.45737259089947"
"8254","Route Point","रुट पोइन्ट","27.65373019624282","85.4592216387391"
"8255","Milanchok Nalinchok","मिलन चोक नलिन्चोक","27.65341124236428","85.45987240970135"
"8256","Jorpati Bhaktapur","जोरपाटी भक्तपुर","27.651692320342576","85.4618575796485"
"8257","Route Point","रुट पोइन्ट","27.651360293244842","85.46209830790758"
"8258","Route Point","रुट पोइन्ट","27.65092461751846","85.46233166009188"
"8259","Route Point","रुट पोइन्ट","27.65025996368015","85.4624081030488"
"8260","Route Point","रुट पोइन्ट","27.650009306760094","85.46242017298937"
"8261","Route Point","रुट पोइन्ट","27.649744096857827","85.46249594539404"
"8262","Route Point","रुट पोइन्ट","27.64939572945801","85.46282149851322"
"8263","Route Point","रुट पोइन्ट","27.648906290690874","85.46346690505743"
"8264","Route Point","रुट पोइन्ट","27.648177771285024","85.4650467261672"
"8265","Route Point","रुट पोइन्ट","27.647986508150034","85.46526800841093"
"8266","Route Point","रुट पोइन्ट","27.64776940626695","85.46535283327101"
"8267","Route Point","रुट पोइन्ट","27.647518149650946","85.46536825597288"
"8268","Route Point","रुट पोइन्ट","27.646862978975207","85.46542961150406"
"8269","Route Point","रुट पोइन्ट","27.646466191925388","85.46574208885431"
"8270","Route Point","रुट पोइन्ट","27.646228594200544","85.46583596616985"
"8271","Route Point","रुट पोइन्ट","27.644433526710728","85.46528544276954"
"8272","Route Point","रुट पोइन्ट","27.6440756382905","85.46526733785868"
"8273","Route Point","रुट पोइन्ट","27.643649140685536","85.46552315354347"
"8274","Route Point","रुट पोइन्ट","27.64355825727625","85.465775616467"
"8275","Route Point","रुट पोइन्ट","27.64355617824312","85.46600528061389"
"8276","Route Point","रुट पोइन्ट","27.643768536422225","85.46651724725962"
"8277","Route Point","रुट पोइन्ट","27.643751310179685","85.46668220311405"
"8278","Route Point","रुट पोइन्ट","27.64364676464967","85.46689007431269"
"8279","Route Point","रुट पोइन्ट","27.64346410673666","85.46703357249498"
"8280","Route Point","रुट पोइन्ट","27.643039091778203","85.46719316393137"
"8281","Route Point","रुट पोइन्ट","27.642922071297054","85.46728067100048"
"8282","Route Point","रुट पोइन्ट","27.64287158018787","85.46742986887693"
"8283","Route Point","रुट पोइन्ट","27.64285613584394","85.46773094683887"
"8284","Route Point","रुट पोइन्ट","27.643016816315544","85.46860534697771"
"8285","Route Point","रुट पोइन्ट","27.642913161103035","85.46895235776901"
"8286","Route Point","रुट पोइन्ट","27.642606055971306","85.46927355229856"
"8287","Route Point","रुट पोइन्ट","27.642394289551397","85.4695538431406"
"8288","Route Point","रुट पोइन्ट","27.642396665614495","85.46976909041405"
"8289","Route Point","रुट पोइन्ट","27.642475966690384","85.4700319468975"
"8290","Route Point","रुट पोइन्ट","27.64275426252065","85.47019019722939"
"8291","Route Point","रुट पोइन्ट","27.643036418722904","85.4700430110097"
"8292","Route Point","रुट पोइन्ट","27.64339728059475","85.46982508152723"
"8293","Route Point","रुट पोइन्ट","27.643652407734795","85.4698783904314"
"8294","Route Point","रुट पोइन्ट","27.643828828249674","85.47013889998198"
"8295","Route Point","रुट पोइन्ट","27.643714778656417","85.47042924910784"
"8296","Route Point","रुट पोइन्ट","27.643465888766563","85.47095596790314"
"8297","Route Point","रुट पोइन्ट","27.643258282088755","85.47175157815218"
"8298","Route Point","रुट पोइन्ट","27.643285012584386","85.47234434634449"
"8299","Route Point","रुट पोइन्ट","27.643290358682748","85.47255858778954"
"8300","Route Point","रुट पोइन्ट","27.64303790375363","85.47297734767199"
"8301","Route Point","रुट पोइन्ट","27.643017113321747","85.47331128269434"
"8302","Route Point","रुट पोइन्ट","27.643407675775045","85.4736428707838"
"8303","Route Point","रुट पोइन्ट","27.643478065970047","85.47390807420014"
"8304","Route Point","रुट पोइन्ट","27.643343225641168","85.47429095953703"
"8305","Route Point","रुट पोइन्ट","27.643323326283408","85.47483544796705"
"8306","Route Point","रुट पोइन्ट","27.6431831396605","85.47577891498804"
"8307","Route Point","रुट पोइन्ट","27.643070574424346","85.47604847699405"
"8308","Route Point","रुट पोइन्ट","27.641797302065644","85.47768160700797"
"8309","Route Point","रुट पोइन्ट","27.64145841369014","85.47811444848777"
"8310","Route Point","रुट पोइन्ट","27.641324461904304","85.47833506017922"
"8311","Route Point","रुट पोइन्ट","27.639569708064762","85.48325624316931"
"8312","Route Point","रुट पोइन्ट","27.639491295929606","85.4831700772047"
"8313","Route Point","रुट पोइन्ट","27.63916576616147","85.48361700028181"
"8314","Route Point","रुट पोइन्ट","27.63766790092468","85.48494402319193"
"8315","Route Point","रुट पोइन्ट","27.637097322634634","85.48574332147835"
"8316","Route Point","रुट पोइन्ट","27.63546339093725","85.4902507737279"
"8317","Route Point","रुट पोइन्ट","27.631938815317348","85.49427878111601"
"8318","Route Point","रुट पोइन्ट","27.63162395641874","85.4952886328101"
"8319","Route Point","रुट पोइन्ट","27.631739503799015","85.4980516433716"
"8320","Route Point","रुट पोइन्ट","27.63204574832216","85.49872823059559"
"8321","Route Point","रुट पोइन्ट","27.631862476969463","85.49959927797318"
"8322","Route Point","रुट पोइन्ट","27.632425953715334","85.50297517329453"
"8323","Route Point","रुट पोइन्ट","27.631565440089652","85.5057254433632"
"8324","Route Point","रुट पोइन्ट","27.631610589747343","85.50717584788798"
"8325","Route Point","रुट पोइन्ट","27.632481796271225","85.50911642611027"
"8326","Route Point","रुट पोइन्ट","27.632000598843977","85.51504880189896"
"8327","Route Point","रुट पोइन्ट","27.627700916818448","85.534439496696"
"8328","Route Point","रुट पोइन्ट","27.627514667708123","85.5229103565216"
"8329","Route Point","रुट पोइन्ट","27.623165200455894","85.52393127232791"
"8330","Route Point","रुट पोइन्ट","27.62305499111178","85.52406471222639"
"8331","Route Point","रुट पोइन्ट","27.622828630871112","85.52417501807213"
"8332","Route Point","रुट पोइन्ट","27.62229124622082","85.5241733416915"
"8333","Route Point","रुट पोइन्ट","27.62134539530001","85.52447274327278"
"8334","Route Point","रुट पोइन्ट","27.62094465386218","85.52506919950248"
"8335","Route Point","रुट पोइन्ट","27.620744728193237","85.52523784339428"
"8336","Route Point","रुट पोइन्ट","27.620460137978416","85.52534110844135"
"8337","Route Point","रुट पोइन्ट","27.619846097907665","85.52561033517122"
"8338","Route Point","रुट पोइन्ट","27.619519618499943","85.52592113614082"
"8339","Route Point","रुट पोइन्ट","27.619047276232735","85.52668992429972"
"8340","Route Point","रुट पोइन्ट","27.618593053351002","85.52710767835379"
"8341","Route Point","रुट पोइन्ट","27.618256766785947","85.5272763222456"
"8342","Route Point","रुट पोइन्ट","27.61783403053116","85.52780739963055"
"8343","Route Point","रुट पोइन्ट","27.61713827974797","85.52838675677776"
"8345","Route Point","रुट पोइन्ट","27.58543237005359","85.51329497247934"
"8346","Route Point","रुट पोइन्ट","27.585808576991145","85.51339220255615"
"8347","Route Point","रुट पोइन्ट","27.586417756104126","85.51341366022827"
"8348","Route Point","रुट पोइन्ट","27.58730150554296","85.51347501575948"
"8349","Route Point","रुट पोइन्ट","27.588775098804625","85.51444966346025"
"8350","Route Point","रुट पोइन्ट","27.588929321274062","85.51458679139614"
"8351","Route Point","रुट पोइन्ट","27.58919230128524","85.51528248935938"
"8353","Route Point","रुट पोइन्ट","27.58983860541251","85.51646467298269"
"8354","Route Point","रुट पोइन्ट","27.59031226220208","85.51682308316232"
"8355","Route Point","रुट पोइन्ट","27.591186768702432","85.51703095436096"
"8356","Route Point","रुट पोइन्ट","27.592341475060405","85.51692701876163"
"8357","Route Point","रुट पोइन्ट","27.592771738241122","85.51705442368984"
"8358","Route Point","रुट पोइन्ट","27.592908720846907","85.5175670608878"
"8359","Route Point","रुट पोइन्ट","27.593308079137177","85.51815010607243"
"8360","Route Point","रुट पोइन्ट","27.59375081839843","85.51862586289643"
"8361","Route Point","रुट पोइन्ट","27.59454863597581","85.51993746310472"
"8362","Route Point","रुट पोइन्ट","27.59467997075225","85.52031330764294"
"8363","Route Point","रुट पोइन्ट","27.594911143347566","85.52073743194343"
"8364","Route Point","रुट पोइन्ट","27.59564298859337","85.52119307219982"
"8365","Route Point","रुट पोइन्ट","27.59591486652033","85.52155114710331"
